[
    {
        "keys": [
            "Абаза"
        ],
        "latitude": 52.65,
        "longitude": 90.083333333333,
        "name": "Абаза"
    },
    {
        "keys": [
            "Абакан"
        ],
        "latitude": 53.71667,
        "longitude": 91.41667,
        "name": "Абакан"
    },
    {
        "keys": [
            "Абдулино"
        ],
        "latitude": 53.68333,
        "longitude": 53.65,
        "name": "Абдулино"
    },
    {
        "keys": [
            "Абинск"
        ],
        "latitude": 44.86667,
        "longitude": 38.16667,
        "name": "Абинск"
    },
    {
        "keys": [
            "Агидель"
        ],
        "latitude": 55.9,
        "longitude": 53.93333,
        "name": "Агидель"
    },
    {
        "keys": [
            "Агрыз"
        ],
        "latitude": 56.51667,
        "longitude": 52.98333,
        "name": "Агрыз"
    },
    {
        "keys": [
            "Адыгейск"
        ],
        "latitude": 44.884525,
        "longitude": 39.19202,
        "name": "Адыгейск"
    },
    {
        "keys": [
            "Азнакаево"
        ],
        "latitude": 54.85,
        "longitude": 53.06667,
        "name": "Азнакаево"
    },
    {
        "keys": [
            "Азов"
        ],
        "latitude": 47.1,
        "longitude": 39.41667,
        "name": "Азов"
    },
    {
        "keys": [
            "Ак-Довурак"
        ],
        "latitude": 51.16667,
        "longitude": 90.6,
        "name": "Ак-Довурак"
    },
    {
        "keys": [
            "Аксай"
        ],
        "latitude": 47.26667,
        "longitude": 39.86667,
        "name": "Аксай"
    },
    {
        "keys": [
            "Алагир"
        ],
        "latitude": 43.04167,
        "longitude": 44.21056,
        "name": "Алагир"
    },
    {
        "keys": [
            "Алапаевск"
        ],
        "latitude": 57.85,
        "longitude": 61.7,
        "name": "Алапаевск"
    },
    {
        "keys": [
            "Алатырь"
        ],
        "latitude": 54.85,
        "longitude": 46.58333,
        "name": "Алатырь"
    },
    {
        "keys": [
            "Алдан"
        ],
        "latitude": 58.6,
        "longitude": 125.38333,
        "name": "Алдан"
    },
    {
        "keys": [
            "Алейск"
        ],
        "latitude": 52.5,
        "longitude": 82.78333,
        "name": "Алейск"
    },
    {
        "keys": [
            "Александров"
        ],
        "latitude": 56.39361,
        "longitude": 38.715,
        "name": "Александров"
    },
    {
        "keys": [
            "Александровск-Сахалинский"
        ],
        "latitude": 50.9,
        "longitude": 142.15,
        "name": "Александровск-Сахалинский"
    },
    {
        "keys": [
            "Александровск"
        ],
        "latitude": 59.16667,
        "longitude": 57.58333,
        "name": "Александровск"
    },
    {
        "keys": [
            "Алексеевка"
        ],
        "latitude": 50.63,
        "longitude": 38.68639,
        "name": "Алексеевка"
    },
    {
        "keys": [
            "Алексин"
        ],
        "latitude": 54.5,
        "longitude": 37.06667,
        "name": "Алексин"
    },
    {
        "keys": [
            "Алзамай"
        ],
        "latitude": 55.55,
        "longitude": 98.66667,
        "name": "Алзамай"
    },
    {
        "keys": [
            "Алупка"
        ],
        "latitude": 44.41972,
        "longitude": 34.04306,
        "name": "Алупка"
    },
    {
        "keys": [
            "Алушта"
        ],
        "latitude": 44.66722,
        "longitude": 34.39778,
        "name": "Алушта"
    },
    {
        "keys": [
            "Альметьевск"
        ],
        "latitude": 54.9,
        "longitude": 52.3,
        "name": "Альметьевск"
    },
    {
        "keys": [
            "Амурск"
        ],
        "latitude": 50.21667,
        "longitude": 136.9,
        "name": "Амурск"
    },
    {
        "keys": [
            "Анадырь"
        ],
        "latitude": 64.73333,
        "longitude": 177.51667,
        "name": "Анадырь"
    },
    {
        "keys": [
            "Анапа"
        ],
        "latitude": 44.893857,
        "longitude": 37.317481,
        "name": "Анапа"
    },
    {
        "keys": [
            "Ангарск"
        ],
        "latitude": 52.56667,
        "longitude": 103.91667,
        "name": "Ангарск"
    },
    {
        "keys": [
            "Андреаполь"
        ],
        "latitude": 56.65,
        "longitude": 32.26667,
        "name": "Андреаполь"
    },
    {
        "keys": [
            "Анжеро-Судженск"
        ],
        "latitude": 56.08333,
        "longitude": 86.03333,
        "name": "Анжеро-Судженск"
    },
    {
        "keys": [
            "Анива"
        ],
        "latitude": 46.71667,
        "longitude": 142.51667,
        "name": "Анива"
    },
    {
        "keys": [
            "Апатиты"
        ],
        "latitude": 67.5675,
        "longitude": 33.39333,
        "name": "Апатиты"
    },
    {
        "keys": [
            "Апрелевка"
        ],
        "latitude": 55.53333,
        "longitude": 37.05,
        "name": "Апрелевка"
    },
    {
        "keys": [
            "Апшеронск"
        ],
        "latitude": 44.46083,
        "longitude": 39.74056,
        "name": "Апшеронск"
    },
    {
        "keys": [
            "Арамиль"
        ],
        "latitude": 56.7,
        "longitude": 60.83333,
        "name": "Арамиль"
    },
    {
        "keys": [
            "Аргун"
        ],
        "latitude": 43.292095,
        "longitude": 45.876622,
        "name": "Аргун"
    },
    {
        "keys": [
            "Ардатов"
        ],
        "latitude": 54.85,
        "longitude": 46.23333,
        "name": "Ардатов"
    },
    {
        "keys": [
            "Ардон"
        ],
        "latitude": 43.17278,
        "longitude": 44.29222,
        "name": "Ардон"
    },
    {
        "keys": [
            "Арзамас"
        ],
        "latitude": 55.38333,
        "longitude": 43.8,
        "name": "Арзамас"
    },
    {
        "keys": [
            "Аркадак"
        ],
        "latitude": 51.93333,
        "longitude": 43.5,
        "name": "Аркадак"
    },
    {
        "keys": [
            "Армавир"
        ],
        "latitude": 44.99464,
        "longitude": 41.12946,
        "name": "Армавир"
    },
    {
        "keys": [
            "Армянск"
        ],
        "latitude": 46.10694,
        "longitude": 33.69306,
        "name": "Армянск"
    },
    {
        "keys": [
            "Арсеньев"
        ],
        "latitude": 44.16667,
        "longitude": 133.26667,
        "name": "Арсеньев"
    },
    {
        "keys": [
            "Арск"
        ],
        "latitude": 56.09056,
        "longitude": 49.87639,
        "name": "Арск"
    },
    {
        "keys": [
            "Артём"
        ],
        "latitude": 43.35,
        "longitude": 132.18333,
        "name": "Артём"
    },
    {
        "keys": [
            "Артёмовск"
        ],
        "latitude": 54.35,
        "longitude": 93.43333,
        "name": "Артёмовск"
    },
    {
        "keys": [
            "Артёмовский"
        ],
        "latitude": 57.33639,
        "longitude": 61.89194,
        "name": "Артёмовский"
    },
    {
        "keys": [
            "Архангельск"
        ],
        "latitude": 64.55,
        "longitude": 40.53333,
        "name": "Архангельск"
    },
    {
        "keys": [
            "Асбест"
        ],
        "latitude": 57.01027679,
        "longitude": 61.45639038,
        "name": "Асбест"
    },
    {
        "keys": [
            "Асино"
        ],
        "latitude": 57.0,
        "longitude": 86.15,
        "name": "Асино"
    },
    {
        "keys": [
            "Астрахань"
        ],
        "latitude": 46.33333,
        "longitude": 48.03333,
        "name": "Астрахань"
    },
    {
        "keys": [
            "Аткарск"
        ],
        "latitude": 51.86667,
        "longitude": 45.0,
        "name": "Аткарск"
    },
    {
        "keys": [
            "Ахтубинск"
        ],
        "latitude": 48.28333,
        "longitude": 46.16667,
        "name": "Ахтубинск"
    },
    {
        "keys": [
            "Ачинск"
        ],
        "latitude": 56.26667,
        "longitude": 90.5,
        "name": "Ачинск"
    },
    {
        "keys": [
            "Ачхой-Мартан"
        ],
        "latitude": 43.189155,
        "longitude": 45.284741,
        "name": "Ачхой-Мартан"
    },
    {
        "keys": [
            "Аша"
        ],
        "latitude": 55.0,
        "longitude": 57.25,
        "name": "Аша"
    },
    {
        "keys": [
            "Бабаево"
        ],
        "latitude": 59.38333,
        "longitude": 35.95,
        "name": "Бабаево"
    },
    {
        "keys": [
            "Бабушкин"
        ],
        "latitude": 51.71667,
        "longitude": 105.86667,
        "name": "Бабушкин"
    },
    {
        "keys": [
            "Бавлы"
        ],
        "latitude": 54.4,
        "longitude": 53.25,
        "name": "Бавлы"
    },
    {
        "keys": [
            "Багратионовск"
        ],
        "latitude": 54.38333,
        "longitude": 20.63333,
        "name": "Багратионовск"
    },
    {
        "keys": [
            "Байкальск"
        ],
        "latitude": 51.51722,
        "longitude": 104.15611,
        "name": "Байкальск"
    },
    {
        "keys": [
            "Баймак"
        ],
        "latitude": 52.58333,
        "longitude": 58.31667,
        "name": "Баймак"
    },
    {
        "keys": [
            "Бакал"
        ],
        "latitude": 54.93333,
        "longitude": 58.8,
        "name": "Бакал"
    },
    {
        "keys": [
            "Баксан"
        ],
        "latitude": 43.683333,
        "longitude": 43.533333,
        "name": "Баксан"
    },
    {
        "keys": [
            "Балабаново"
        ],
        "latitude": 55.18333,
        "longitude": 36.65,
        "name": "Балабаново"
    },
    {
        "keys": [
            "Балаклава"
        ],
        "latitude": 44.5,
        "longitude": 33.6,
        "name": "Балаклава"
    },
    {
        "keys": [
            "Балаково"
        ],
        "latitude": 52.03333,
        "longitude": 47.78333,
        "name": "Балаково"
    },
    {
        "keys": [
            "Балахна"
        ],
        "latitude": 56.48083,
        "longitude": 43.54028,
        "name": "Балахна"
    },
    {
        "keys": [
            "Балашиха"
        ],
        "latitude": 55.8,
        "longitude": 37.93333,
        "name": "Балашиха"
    },
    {
        "keys": [
            "Балашов"
        ],
        "latitude": 51.55,
        "longitude": 43.16667,
        "name": "Балашов"
    },
    {
        "keys": [
            "Балей"
        ],
        "latitude": 51.57694,
        "longitude": 116.64917,
        "name": "Балей"
    },
    {
        "keys": [
            "Балтийск"
        ],
        "latitude": 54.65,
        "longitude": 19.91667,
        "name": "Балтийск"
    },
    {
        "keys": [
            "Барабинск"
        ],
        "latitude": 55.35,
        "longitude": 78.35,
        "name": "Барабинск"
    },
    {
        "keys": [
            "Барнаул"
        ],
        "latitude": 53.347361,
        "longitude": 83.77833,
        "name": "Барнаул"
    },
    {
        "keys": [
            "Барыш"
        ],
        "latitude": 53.65,
        "longitude": 47.11667,
        "name": "Барыш"
    },
    {
        "keys": [
            "Батайск"
        ],
        "latitude": 47.13333,
        "longitude": 39.75,
        "name": "Батайск"
    },
    {
        "keys": [
            "Бахчисарай"
        ],
        "latitude": 44.75278,
        "longitude": 33.86083,
        "name": "Бахчисарай"
    },
    {
        "keys": [
            "Бежецк"
        ],
        "latitude": 57.78333,
        "longitude": 36.7,
        "name": "Бежецк"
    },
    {
        "keys": [
            "Белая Калитва"
        ],
        "latitude": 48.17472,
        "longitude": 40.79306,
        "name": "Белая Калитва"
    },
    {
        "keys": [
            "Белая Холуница"
        ],
        "latitude": 58.83333,
        "longitude": 50.85,
        "name": "Белая Холуница"
    },
    {
        "keys": [
            "Белгород"
        ],
        "latitude": 50.6,
        "longitude": 36.6,
        "name": "Белгород"
    },
    {
        "keys": [
            "Белебей"
        ],
        "latitude": 54.1,
        "longitude": 54.13333,
        "name": "Белебей"
    },
    {
        "keys": [
            "Белинский"
        ],
        "latitude": 52.96667,
        "longitude": 43.41667,
        "name": "Белинский"
    },
    {
        "keys": [
            "Белово"
        ],
        "latitude": 54.416666666667,
        "longitude": 86.3,
        "name": "Белово"
    },
    {
        "keys": [
            "Белогорск"
        ],
        "latitude": 50.91667,
        "longitude": 128.48333,
        "name": "Белогорск"
    },
    {
        "keys": [
            "Белогорск"
        ],
        "latitude": 45.05444,
        "longitude": 34.60222,
        "name": "Белогорск"
    },
    {
        "keys": [
            "Белозерск"
        ],
        "latitude": 60.03333,
        "longitude": 37.78333,
        "name": "Белозерск"
    },
    {
        "keys": [
            "Белокуриха"
        ],
        "latitude": 52.0,
        "longitude": 84.98333,
        "name": "Белокуриха"
    },
    {
        "keys": [
            "Беломорск"
        ],
        "latitude": 64.51667,
        "longitude": 34.76667,
        "name": "Беломорск"
    },
    {
        "keys": [
            "Белоозёрский"
        ],
        "latitude": 55.46139,
        "longitude": 38.44222,
        "name": "Белоозёрский"
    },
    {
        "keys": [
            "Белорецк"
        ],
        "latitude": 53.96667,
        "longitude": 58.4,
        "name": "Белорецк"
    },
    {
        "keys": [
            "Белореченск"
        ],
        "latitude": 44.76667,
        "longitude": 39.86667,
        "name": "Белореченск"
    },
    {
        "keys": [
            "Белоусово"
        ],
        "latitude": 55.09167,
        "longitude": 36.66667,
        "name": "Белоусово"
    },
    {
        "keys": [
            "Белоярский"
        ],
        "latitude": 63.71667,
        "longitude": 66.66667,
        "name": "Белоярский"
    },
    {
        "keys": [
            "Белый"
        ],
        "latitude": 55.83333,
        "longitude": 32.93333,
        "name": "Белый"
    },
    {
        "keys": [
            "Белёв"
        ],
        "latitude": 53.8,
        "longitude": 36.13333,
        "name": "Белёв"
    },
    {
        "keys": [
            "Бердск"
        ],
        "latitude": 54.75,
        "longitude": 83.1,
        "name": "Бердск"
    },
    {
        "keys": [
            "Березники"
        ],
        "latitude": 59.40806,
        "longitude": 56.80528,
        "name": "Березники"
    },
    {
        "keys": [
            "Берёзовский"
        ],
        "latitude": 55.66667,
        "longitude": 86.25,
        "name": "Берёзовский"
    },
    {
        "keys": [
            "Берёзовский"
        ],
        "latitude": 56.9,
        "longitude": 60.8,
        "name": "Берёзовский"
    },
    {
        "keys": [
            "Беслан"
        ],
        "latitude": 43.18889,
        "longitude": 44.521691,
        "name": "Беслан"
    },
    {
        "keys": [
            "Бийск"
        ],
        "latitude": 52.51667,
        "longitude": 85.16667,
        "name": "Бийск"
    },
    {
        "keys": [
            "Бикин"
        ],
        "latitude": 46.81667,
        "longitude": 134.25,
        "name": "Бикин"
    },
    {
        "keys": [
            "Билибино"
        ],
        "latitude": 68.05,
        "longitude": 166.45,
        "name": "Билибино"
    },
    {
        "keys": [
            "Биробиджан"
        ],
        "latitude": 48.78333,
        "longitude": 132.93333,
        "name": "Биробиджан"
    },
    {
        "keys": [
            "Бирск"
        ],
        "latitude": 55.41667,
        "longitude": 55.53333,
        "name": "Бирск"
    },
    {
        "keys": [
            "Бирюсинск"
        ],
        "latitude": 55.95,
        "longitude": 97.81667,
        "name": "Бирюсинск"
    },
    {
        "keys": [
            "Бирюч"
        ],
        "latitude": 50.65,
        "longitude": 38.4,
        "name": "Бирюч"
    },
    {
        "keys": [
            "Благовещенск"
        ],
        "latitude": 50.25778,
        "longitude": 127.53639,
        "name": "Благовещенск"
    },
    {
        "keys": [
            "Благовещенск"
        ],
        "latitude": 55.03333,
        "longitude": 55.98333,
        "name": "Благовещенск"
    },
    {
        "keys": [
            "Благодарный"
        ],
        "latitude": 45.1029039,
        "longitude": 43.4251513,
        "name": "Благодарный"
    },
    {
        "keys": [
            "Бобров"
        ],
        "latitude": 51.09444,
        "longitude": 40.03222,
        "name": "Бобров"
    },
    {
        "keys": [
            "Богданович"
        ],
        "latitude": 56.78333,
        "longitude": 62.05,
        "name": "Богданович"
    },
    {
        "keys": [
            "Богородицк"
        ],
        "latitude": 53.76667,
        "longitude": 38.13333,
        "name": "Богородицк"
    },
    {
        "keys": [
            "Богородск"
        ],
        "latitude": 56.09972,
        "longitude": 43.50722,
        "name": "Богородск"
    },
    {
        "keys": [
            "Боготол"
        ],
        "latitude": 56.2,
        "longitude": 89.51667,
        "name": "Боготол"
    },
    {
        "keys": [
            "Богучар"
        ],
        "latitude": 49.93333,
        "longitude": 40.55,
        "name": "Богучар"
    },
    {
        "keys": [
            "Бодайбо"
        ],
        "latitude": 57.85,
        "longitude": 114.2,
        "name": "Бодайбо"
    },
    {
        "keys": [
            "Бокситогорск"
        ],
        "latitude": 59.473576,
        "longitude": 33.847675,
        "name": "Бокситогорск"
    },
    {
        "keys": [
            "Болгар"
        ],
        "latitude": 54.96667,
        "longitude": 49.03333,
        "name": "Болгар"
    },
    {
        "keys": [
            "Бологое"
        ],
        "latitude": 57.87083,
        "longitude": 34.07361,
        "name": "Бологое"
    },
    {
        "keys": [
            "Болотное"
        ],
        "latitude": 55.66667,
        "longitude": 84.4,
        "name": "Болотное"
    },
    {
        "keys": [
            "Болохово"
        ],
        "latitude": 54.08333,
        "longitude": 37.81667,
        "name": "Болохово"
    },
    {
        "keys": [
            "Болхов"
        ],
        "latitude": 53.45,
        "longitude": 36.0,
        "name": "Болхов"
    },
    {
        "keys": [
            "Большой Камень"
        ],
        "latitude": 43.11667,
        "longitude": 132.35,
        "name": "Большой Камень"
    },
    {
        "keys": [
            "Бор"
        ],
        "latitude": 56.36028,
        "longitude": 44.05917,
        "name": "Бор"
    },
    {
        "keys": [
            "Борзя"
        ],
        "latitude": 50.38333,
        "longitude": 116.53333,
        "name": "Борзя"
    },
    {
        "keys": [
            "Борисоглебск"
        ],
        "latitude": 51.36667,
        "longitude": 42.08333,
        "name": "Борисоглебск"
    },
    {
        "keys": [
            "Боровичи"
        ],
        "latitude": 58.38694,
        "longitude": 33.91139,
        "name": "Боровичи"
    },
    {
        "keys": [
            "Боровск"
        ],
        "latitude": 55.2,
        "longitude": 36.48333,
        "name": "Боровск"
    },
    {
        "keys": [
            "Бородино"
        ],
        "latitude": 55.9,
        "longitude": 94.9,
        "name": "Бородино"
    },
    {
        "keys": [
            "Братск"
        ],
        "latitude": 56.152,
        "longitude": 101.633,
        "name": "Братск"
    },
    {
        "keys": [
            "Бронницы"
        ],
        "latitude": 55.42278,
        "longitude": 38.25889,
        "name": "Бронницы"
    },
    {
        "keys": [
            "Брянск"
        ],
        "latitude": 53.25,
        "longitude": 34.36667,
        "name": "Брянск"
    },
    {
        "keys": [
            "Бугульма"
        ],
        "latitude": 54.53333,
        "longitude": 52.78333,
        "name": "Бугульма"
    },
    {
        "keys": [
            "Бугуруслан"
        ],
        "latitude": 53.61667,
        "longitude": 52.41667,
        "name": "Бугуруслан"
    },
    {
        "keys": [
            "Будённовск"
        ],
        "latitude": 44.79,
        "longitude": 44.14,
        "name": "Будённовск"
    },
    {
        "keys": [
            "Бузулук"
        ],
        "latitude": 52.76667,
        "longitude": 52.26667,
        "name": "Бузулук"
    },
    {
        "keys": [
            "Буинск"
        ],
        "latitude": 54.96667,
        "longitude": 48.28333,
        "name": "Буинск"
    },
    {
        "keys": [
            "Буй"
        ],
        "latitude": 58.48333,
        "longitude": 41.51667,
        "name": "Буй"
    },
    {
        "keys": [
            "Буйнакск"
        ],
        "latitude": 42.81667,
        "longitude": 47.11667,
        "name": "Буйнакск"
    },
    {
        "keys": [
            "Бутурлиновка"
        ],
        "latitude": 50.825,
        "longitude": 40.58889,
        "name": "Бутурлиновка"
    },
    {
        "keys": [
            "Валдай"
        ],
        "latitude": 57.96667,
        "longitude": 33.25,
        "name": "Валдай"
    },
    {
        "keys": [
            "Валуйки"
        ],
        "latitude": 50.18333,
        "longitude": 38.11667,
        "name": "Валуйки"
    },
    {
        "keys": [
            "Велиж"
        ],
        "latitude": 55.6,
        "longitude": 31.2,
        "name": "Велиж"
    },
    {
        "keys": [
            "Великие Луки"
        ],
        "latitude": 56.35,
        "longitude": 30.51667,
        "name": "Великие Луки"
    },
    {
        "keys": [
            "Великий Новгород"
        ],
        "latitude": 58.525,
        "longitude": 31.275,
        "name": "Великий Новгород"
    },
    {
        "keys": [
            "Великий Устюг"
        ],
        "latitude": 60.75889,
        "longitude": 46.30389,
        "name": "Великий Устюг"
    },
    {
        "keys": [
            "Вельск"
        ],
        "latitude": 61.06667,
        "longitude": 42.1,
        "name": "Вельск"
    },
    {
        "keys": [
            "Венёв"
        ],
        "latitude": 54.35,
        "longitude": 38.26667,
        "name": "Венёв"
    },
    {
        "keys": [
            "Верещагино"
        ],
        "latitude": 58.06667,
        "longitude": 54.65,
        "name": "Верещагино"
    },
    {
        "keys": [
            "Верея"
        ],
        "latitude": 55.33333,
        "longitude": 36.18333,
        "name": "Верея"
    },
    {
        "keys": [
            "Верхнеуральск"
        ],
        "latitude": 53.88333,
        "longitude": 59.21667,
        "name": "Верхнеуральск"
    },
    {
        "keys": [
            "Верхний Тагил"
        ],
        "latitude": 57.38333,
        "longitude": 59.93333,
        "name": "Верхний Тагил"
    },
    {
        "keys": [
            "Верхний Уфалей"
        ],
        "latitude": 56.05,
        "longitude": 60.23333,
        "name": "Верхний Уфалей"
    },
    {
        "keys": [
            "Верхняя Пышма"
        ],
        "latitude": 56.966666666667,
        "longitude": 60.583333333333,
        "name": "Верхняя Пышма"
    },
    {
        "keys": [
            "Верхняя Салда"
        ],
        "latitude": 58.05,
        "longitude": 60.55,
        "name": "Верхняя Салда"
    },
    {
        "keys": [
            "Верхняя Тура"
        ],
        "latitude": 58.3574333,
        "longitude": 59.8224444,
        "name": "Верхняя Тура"
    },
    {
        "keys": [
            "Верхотурье"
        ],
        "latitude": 58.86667,
        "longitude": 60.8,
        "name": "Верхотурье"
    },
    {
        "keys": [
            "Верхоянск"
        ],
        "latitude": 67.55,
        "longitude": 133.38333,
        "name": "Верхоянск"
    },
    {
        "keys": [
            "Весьегонск"
        ],
        "latitude": 58.65,
        "longitude": 37.26667,
        "name": "Весьегонск"
    },
    {
        "keys": [
            "Ветлуга"
        ],
        "latitude": 57.85556,
        "longitude": 45.78111,
        "name": "Ветлуга"
    },
    {
        "keys": [
            "Видное"
        ],
        "latitude": 55.55,
        "longitude": 37.7,
        "name": "Видное"
    },
    {
        "keys": [
            "Вилюйск"
        ],
        "latitude": 63.75,
        "longitude": 121.61667,
        "name": "Вилюйск"
    },
    {
        "keys": [
            "Вилючинск"
        ],
        "latitude": 52.93333,
        "longitude": 158.4,
        "name": "Вилючинск"
    },
    {
        "keys": [
            "Вихоревка"
        ],
        "latitude": 56.11667,
        "longitude": 101.16667,
        "name": "Вихоревка"
    },
    {
        "keys": [
            "Вичуга"
        ],
        "latitude": 57.2,
        "longitude": 41.91667,
        "name": "Вичуга"
    },
    {
        "keys": [
            "Владивосток"
        ],
        "latitude": 43.116666666667,
        "longitude": 131.9,
        "name": "Владивосток"
    },
    {
        "keys": [
            "Владикавказ"
        ],
        "latitude": 43.01667,
        "longitude": 44.683315,
        "name": "Владикавказ"
    },
    {
        "keys": [
            "Владимир"
        ],
        "latitude": 56.13333,
        "longitude": 40.41667,
        "name": "Владимир"
    },
    {
        "keys": [
            "Волгоград"
        ],
        "latitude": 48.71167,
        "longitude": 44.51389,
        "name": "Волгоград"
    },
    {
        "keys": [
            "Волгодонск"
        ],
        "latitude": 47.54,
        "longitude": 42.20722,
        "name": "Волгодонск"
    },
    {
        "keys": [
            "Волгореченск"
        ],
        "latitude": 57.43333,
        "longitude": 41.16667,
        "name": "Волгореченск"
    },
    {
        "keys": [
            "Волжск"
        ],
        "latitude": 55.86667,
        "longitude": 48.35,
        "name": "Волжск"
    },
    {
        "keys": [
            "Волжский"
        ],
        "latitude": 48.783333333333,
        "longitude": 44.766666666667,
        "name": "Волжский"
    },
    {
        "keys": [
            "Вологда"
        ],
        "latitude": 59.216666666667,
        "longitude": 39.9,
        "name": "Вологда"
    },
    {
        "keys": [
            "Володарск"
        ],
        "latitude": 56.23333,
        "longitude": 43.2,
        "name": "Володарск"
    },
    {
        "keys": [
            "Волоколамск"
        ],
        "latitude": 56.03333,
        "longitude": 35.95,
        "name": "Волоколамск"
    },
    {
        "keys": [
            "Волосово"
        ],
        "latitude": 59.447275,
        "longitude": 29.484819,
        "name": "Волосово"
    },
    {
        "keys": [
            "Волхов"
        ],
        "latitude": 59.900543,
        "longitude": 32.352681,
        "name": "Волхов"
    },
    {
        "keys": [
            "Волчанск"
        ],
        "latitude": 59.93333,
        "longitude": 60.05,
        "name": "Волчанск"
    },
    {
        "keys": [
            "Вольск"
        ],
        "latitude": 52.05,
        "longitude": 47.38333,
        "name": "Вольск"
    },
    {
        "keys": [
            "Воркута"
        ],
        "latitude": 67.5,
        "longitude": 64.03333,
        "name": "Воркута"
    },
    {
        "keys": [
            "Воронеж"
        ],
        "latitude": 51.67167,
        "longitude": 39.21056,
        "name": "Воронеж"
    },
    {
        "keys": [
            "Ворсма"
        ],
        "latitude": 55.98333,
        "longitude": 43.26667,
        "name": "Ворсма"
    },
    {
        "keys": [
            "Воскресенск"
        ],
        "latitude": 55.32333,
        "longitude": 38.68056,
        "name": "Воскресенск"
    },
    {
        "keys": [
            "Воткинск"
        ],
        "latitude": 57.05,
        "longitude": 54.0,
        "name": "Воткинск"
    },
    {
        "keys": [
            "Всеволожск"
        ],
        "latitude": 60.021321,
        "longitude": 30.654084,
        "name": "Всеволожск"
    },
    {
        "keys": [
            "Вуктыл"
        ],
        "latitude": 63.86667,
        "longitude": 57.31667,
        "name": "Вуктыл"
    },
    {
        "keys": [
            "Выборг"
        ],
        "latitude": 60.710496,
        "longitude": 28.749781,
        "name": "Выборг"
    },
    {
        "keys": [
            "Выкса"
        ],
        "latitude": 55.31944,
        "longitude": 42.17306,
        "name": "Выкса"
    },
    {
        "keys": [
            "Высоковск"
        ],
        "latitude": 56.31667,
        "longitude": 36.55,
        "name": "Высоковск"
    },
    {
        "keys": [
            "Высоцк"
        ],
        "latitude": 60.625604,
        "longitude": 28.568277,
        "name": "Высоцк"
    },
    {
        "keys": [
            "Вытегра"
        ],
        "latitude": 61.0,
        "longitude": 36.45,
        "name": "Вытегра"
    },
    {
        "keys": [
            "Вышний Волочёк"
        ],
        "latitude": 57.58333,
        "longitude": 34.56667,
        "name": "Вышний Волочёк"
    },
    {
        "keys": [
            "Вяземский"
        ],
        "latitude": 47.53333,
        "longitude": 134.75,
        "name": "Вяземский"
    },
    {
        "keys": [
            "Вязники"
        ],
        "latitude": 56.24333,
        "longitude": 42.12917,
        "name": "Вязники"
    },
    {
        "keys": [
            "Вязьма"
        ],
        "latitude": 55.21028,
        "longitude": 34.285,
        "name": "Вязьма"
    },
    {
        "keys": [
            "Вятские Поляны"
        ],
        "latitude": 56.218417,
        "longitude": 51.068583,
        "name": "Вятские Поляны"
    },
    {
        "keys": [
            "Гаврилов Посад"
        ],
        "latitude": 56.56667,
        "longitude": 40.11667,
        "name": "Гаврилов Посад"
    },
    {
        "keys": [
            "Гаврилов-Ям"
        ],
        "latitude": 57.3,
        "longitude": 39.85,
        "name": "Гаврилов-Ям"
    },
    {
        "keys": [
            "Гагарин"
        ],
        "latitude": 55.55,
        "longitude": 35.0,
        "name": "Гагарин"
    },
    {
        "keys": [
            "Гаджиево"
        ],
        "latitude": 69.25528,
        "longitude": 33.31667,
        "name": "Гаджиево"
    },
    {
        "keys": [
            "Гай"
        ],
        "latitude": 51.46667,
        "longitude": 58.45,
        "name": "Гай"
    },
    {
        "keys": [
            "Галич"
        ],
        "latitude": 58.38333,
        "longitude": 42.35,
        "name": "Галич"
    },
    {
        "keys": [
            "Гатчина"
        ],
        "latitude": 59.56841,
        "longitude": 30.122892,
        "name": "Гатчина"
    },
    {
        "keys": [
            "Гвардейск"
        ],
        "latitude": 54.65,
        "longitude": 21.06667,
        "name": "Гвардейск"
    },
    {
        "keys": [
            "Гдов"
        ],
        "latitude": 58.73333,
        "longitude": 27.81667,
        "name": "Гдов"
    },
    {
        "keys": [
            "Геленджик"
        ],
        "latitude": 44.560999,
        "longitude": 38.076949,
        "name": "Геленджик"
    },
    {
        "keys": [
            "Георгиевск"
        ],
        "latitude": 44.15,
        "longitude": 43.46667,
        "name": "Георгиевск"
    },
    {
        "keys": [
            "Глазов"
        ],
        "latitude": 58.14083,
        "longitude": 52.67417,
        "name": "Глазов"
    },
    {
        "keys": [
            "Голицыно"
        ],
        "latitude": 55.61472,
        "longitude": 36.98722,
        "name": "Голицыно"
    },
    {
        "keys": [
            "Горбатов"
        ],
        "latitude": 56.13333,
        "longitude": 43.06667,
        "name": "Горбатов"
    },
    {
        "keys": [
            "Горно-Алтайск"
        ],
        "latitude": 51.96,
        "longitude": 85.96,
        "name": "Горно-Алтайск"
    },
    {
        "keys": [
            "Горнозаводск"
        ],
        "latitude": 58.38333,
        "longitude": 58.31667,
        "name": "Горнозаводск"
    },
    {
        "keys": [
            "Горняк"
        ],
        "latitude": 50.993028,
        "longitude": 81.467934,
        "name": "Горняк"
    },
    {
        "keys": [
            "Городец"
        ],
        "latitude": 56.65028,
        "longitude": 43.47028,
        "name": "Городец"
    },
    {
        "keys": [
            "Городище"
        ],
        "latitude": 53.26667,
        "longitude": 45.7,
        "name": "Городище"
    },
    {
        "keys": [
            "Городовиковск"
        ],
        "latitude": 46.08333,
        "longitude": 41.93333,
        "name": "Городовиковск"
    },
    {
        "keys": [
            "Гороховец"
        ],
        "latitude": 56.20278,
        "longitude": 42.6925,
        "name": "Гороховец"
    },
    {
        "keys": [
            "Горячий Ключ"
        ],
        "latitude": 44.633284,
        "longitude": 39.133287,
        "name": "Горячий Ключ"
    },
    {
        "keys": [
            "Грайворон"
        ],
        "latitude": 50.48333,
        "longitude": 35.66667,
        "name": "Грайворон"
    },
    {
        "keys": [
            "Гремячинск"
        ],
        "latitude": 58.56667,
        "longitude": 57.83333,
        "name": "Гремячинск"
    },
    {
        "keys": [
            "Грозный"
        ],
        "latitude": 43.31667,
        "longitude": 45.7,
        "name": "Грозный"
    },
    {
        "keys": [
            "Грязи"
        ],
        "latitude": 52.5,
        "longitude": 39.93333,
        "name": "Грязи"
    },
    {
        "keys": [
            "Грязовец"
        ],
        "latitude": 58.88333,
        "longitude": 40.25,
        "name": "Грязовец"
    },
    {
        "keys": [
            "Губаха"
        ],
        "latitude": 58.86667,
        "longitude": 57.58333,
        "name": "Губаха"
    },
    {
        "keys": [
            "Губкин"
        ],
        "latitude": 51.28333,
        "longitude": 37.55,
        "name": "Губкин"
    },
    {
        "keys": [
            "Губкинский"
        ],
        "latitude": 64.43333,
        "longitude": 76.5,
        "name": "Губкинский"
    },
    {
        "keys": [
            "Гудермес"
        ],
        "latitude": 43.34861,
        "longitude": 46.09611,
        "name": "Гудермес"
    },
    {
        "keys": [
            "Гуково"
        ],
        "latitude": 48.05,
        "longitude": 39.93333,
        "name": "Гуково"
    },
    {
        "keys": [
            "Гулькевичи"
        ],
        "latitude": 45.36028,
        "longitude": 40.69444,
        "name": "Гулькевичи"
    },
    {
        "keys": [
            "Гурьевск"
        ],
        "latitude": 54.76667,
        "longitude": 20.6,
        "name": "Гурьевск"
    },
    {
        "keys": [
            "Гурьевск"
        ],
        "latitude": 54.28333,
        "longitude": 85.93333,
        "name": "Гурьевск"
    },
    {
        "keys": [
            "Гусев"
        ],
        "latitude": 54.58333,
        "longitude": 22.2,
        "name": "Гусев"
    },
    {
        "keys": [
            "Гусиноозёрск"
        ],
        "latitude": 51.28556,
        "longitude": 106.52917,
        "name": "Гусиноозёрск"
    },
    {
        "keys": [
            "Гусь-Хрустальный"
        ],
        "latitude": 55.61667,
        "longitude": 40.65,
        "name": "Гусь-Хрустальный"
    },
    {
        "keys": [
            "Давлеканово"
        ],
        "latitude": 54.21667,
        "longitude": 55.03333,
        "name": "Давлеканово"
    },
    {
        "keys": [
            "Дагестанские Огни"
        ],
        "latitude": 42.11667,
        "longitude": 48.2,
        "name": "Дагестанские Огни"
    },
    {
        "keys": [
            "Далматово"
        ],
        "latitude": 56.26667,
        "longitude": 62.91667,
        "name": "Далматово"
    },
    {
        "keys": [
            "Дальнегорск"
        ],
        "latitude": 44.56667,
        "longitude": 135.61667,
        "name": "Дальнегорск"
    },
    {
        "keys": [
            "Дальнереченск"
        ],
        "latitude": 45.93333,
        "longitude": 133.73333,
        "name": "Дальнереченск"
    },
    {
        "keys": [
            "Данилов"
        ],
        "latitude": 58.18333,
        "longitude": 40.18333,
        "name": "Данилов"
    },
    {
        "keys": [
            "Данков"
        ],
        "latitude": 53.25,
        "longitude": 39.15,
        "name": "Данков"
    },
    {
        "keys": [
            "Дегтярск"
        ],
        "latitude": 56.7,
        "longitude": 60.1,
        "name": "Дегтярск"
    },
    {
        "keys": [
            "Дедовск"
        ],
        "latitude": 55.86667,
        "longitude": 37.13333,
        "name": "Дедовск"
    },
    {
        "keys": [
            "Демидов"
        ],
        "latitude": 55.26667,
        "longitude": 31.51667,
        "name": "Демидов"
    },
    {
        "keys": [
            "Дербент"
        ],
        "latitude": 42.069825,
        "longitude": 48.295025,
        "name": "Дербент"
    },
    {
        "keys": [
            "Десногорск"
        ],
        "latitude": 54.1530861,
        "longitude": 33.2902917,
        "name": "Десногорск"
    },
    {
        "keys": [
            "Джанкой"
        ],
        "latitude": 45.70861,
        "longitude": 34.39333,
        "name": "Джанкой"
    },
    {
        "keys": [
            "Дзержинск"
        ],
        "latitude": 56.23333,
        "longitude": 43.45,
        "name": "Дзержинск"
    },
    {
        "keys": [
            "Дзержинский"
        ],
        "latitude": 55.63333,
        "longitude": 37.85,
        "name": "Дзержинский"
    },
    {
        "keys": [
            "Дивногорск"
        ],
        "latitude": 55.95,
        "longitude": 92.38333,
        "name": "Дивногорск"
    },
    {
        "keys": [
            "Дигора"
        ],
        "latitude": 43.15,
        "longitude": 44.15,
        "name": "Дигора"
    },
    {
        "keys": [
            "Димитровград"
        ],
        "latitude": 54.23333,
        "longitude": 49.58333,
        "name": "Димитровград"
    },
    {
        "keys": [
            "Дмитриев"
        ],
        "latitude": 52.12889,
        "longitude": 35.07556,
        "name": "Дмитриев"
    },
    {
        "keys": [
            "Дмитров"
        ],
        "latitude": 56.34667,
        "longitude": 37.52167,
        "name": "Дмитров"
    },
    {
        "keys": [
            "Дмитровск"
        ],
        "latitude": 52.505504,
        "longitude": 35.141478,
        "name": "Дмитровск"
    },
    {
        "keys": [
            "Дно"
        ],
        "latitude": 57.83333,
        "longitude": 29.96667,
        "name": "Дно"
    },
    {
        "keys": [
            "Добрянка"
        ],
        "latitude": 58.45,
        "longitude": 56.41667,
        "name": "Добрянка"
    },
    {
        "keys": [
            "Долгопрудный"
        ],
        "latitude": 55.93333,
        "longitude": 37.5,
        "name": "Долгопрудный"
    },
    {
        "keys": [
            "Долинск"
        ],
        "latitude": 47.31667,
        "longitude": 142.8,
        "name": "Долинск"
    },
    {
        "keys": [
            "Домодедово"
        ],
        "latitude": 55.44389,
        "longitude": 37.75806,
        "name": "Домодедово"
    },
    {
        "keys": [
            "Донецк"
        ],
        "latitude": 48.33694,
        "longitude": 39.945,
        "name": "Донецк"
    },
    {
        "keys": [
            "Донской"
        ],
        "latitude": 53.96667,
        "longitude": 38.31667,
        "name": "Донской"
    },
    {
        "keys": [
            "Дорогобуж"
        ],
        "latitude": 54.92,
        "longitude": 33.307777777778,
        "name": "Дорогобуж"
    },
    {
        "keys": [
            "Дрезна"
        ],
        "latitude": 55.74444,
        "longitude": 38.84944,
        "name": "Дрезна"
    },
    {
        "keys": [
            "Дубна"
        ],
        "latitude": 56.75,
        "longitude": 37.15,
        "name": "Дубна"
    },
    {
        "keys": [
            "Дубовка"
        ],
        "latitude": 49.05,
        "longitude": 44.83333,
        "name": "Дубовка"
    },
    {
        "keys": [
            "Дудинка"
        ],
        "latitude": 69.4,
        "longitude": 86.18333,
        "name": "Дудинка"
    },
    {
        "keys": [
            "Духовщина"
        ],
        "latitude": 55.2,
        "longitude": 32.41667,
        "name": "Духовщина"
    },
    {
        "keys": [
            "Дюртюли"
        ],
        "latitude": 55.48333,
        "longitude": 54.86667,
        "name": "Дюртюли"
    },
    {
        "keys": [
            "Дятьково"
        ],
        "latitude": 53.6,
        "longitude": 34.33333,
        "name": "Дятьково"
    },
    {
        "keys": [
            "Евпатория"
        ],
        "latitude": 45.2,
        "longitude": 33.35833,
        "name": "Евпатория"
    },
    {
        "keys": [
            "Егорьевск"
        ],
        "latitude": 55.38333,
        "longitude": 39.03361,
        "name": "Егорьевск"
    },
    {
        "keys": [
            "Ейск"
        ],
        "latitude": 46.71056,
        "longitude": 38.27778,
        "name": "Ейск"
    },
    {
        "keys": [
            "Екатеринбург"
        ],
        "latitude": 56.83333,
        "longitude": 60.58333,
        "name": "Екатеринбург"
    },
    {
        "keys": [
            "Елабуга"
        ],
        "latitude": 55.76667,
        "longitude": 52.03333,
        "name": "Елабуга"
    },
    {
        "keys": [
            "Елец"
        ],
        "latitude": 52.61667,
        "longitude": 38.46667,
        "name": "Елец"
    },
    {
        "keys": [
            "Елизово"
        ],
        "latitude": 53.18333,
        "longitude": 158.38333,
        "name": "Елизово"
    },
    {
        "keys": [
            "Ельня"
        ],
        "latitude": 54.56667,
        "longitude": 33.16667,
        "name": "Ельня"
    },
    {
        "keys": [
            "Еманжелинск"
        ],
        "latitude": 54.75,
        "longitude": 61.31667,
        "name": "Еманжелинск"
    },
    {
        "keys": [
            "Емва"
        ],
        "latitude": 62.58333,
        "longitude": 50.85,
        "name": "Емва"
    },
    {
        "keys": [
            "Енисейск"
        ],
        "latitude": 58.46667,
        "longitude": 92.13333,
        "name": "Енисейск"
    },
    {
        "keys": [
            "Ермолино"
        ],
        "latitude": 55.20556,
        "longitude": 36.57,
        "name": "Ермолино"
    },
    {
        "keys": [
            "Ершов"
        ],
        "latitude": 51.35,
        "longitude": 48.28333,
        "name": "Ершов"
    },
    {
        "keys": [
            "Ессентуки"
        ],
        "latitude": 44.04306,
        "longitude": 42.86417,
        "name": "Ессентуки"
    },
    {
        "keys": [
            "Ефремов"
        ],
        "latitude": 53.149167,
        "longitude": 38.082585,
        "name": "Ефремов"
    },
    {
        "keys": [
            "Железноводск"
        ],
        "latitude": 44.13333,
        "longitude": 43.03333,
        "name": "Железноводск"
    },
    {
        "keys": [
            "Железногорск-Илимский"
        ],
        "latitude": 56.58333,
        "longitude": 104.11667,
        "name": "Железногорск-Илимский"
    },
    {
        "keys": [
            "Железногорск"
        ],
        "latitude": 56.25,
        "longitude": 93.53333,
        "name": "Железногорск"
    },
    {
        "keys": [
            "Железногорск"
        ],
        "latitude": 52.339174,
        "longitude": 35.351582,
        "name": "Железногорск"
    },
    {
        "keys": [
            "Жердевка"
        ],
        "latitude": 51.83333,
        "longitude": 41.46667,
        "name": "Жердевка"
    },
    {
        "keys": [
            "Жигулёвск"
        ],
        "latitude": 53.4,
        "longitude": 49.5,
        "name": "Жигулёвск"
    },
    {
        "keys": [
            "Жиздра"
        ],
        "latitude": 53.75028,
        "longitude": 34.73611,
        "name": "Жиздра"
    },
    {
        "keys": [
            "Жирновск"
        ],
        "latitude": 50.98028,
        "longitude": 44.78083,
        "name": "Жирновск"
    },
    {
        "keys": [
            "Жуков"
        ],
        "latitude": 55.03333,
        "longitude": 36.75,
        "name": "Жуков"
    },
    {
        "keys": [
            "Жуковка"
        ],
        "latitude": 53.53333,
        "longitude": 33.73333,
        "name": "Жуковка"
    },
    {
        "keys": [
            "Жуковский"
        ],
        "latitude": 55.60111,
        "longitude": 38.11611,
        "name": "Жуковский"
    },
    {
        "keys": [
            "Завитинск"
        ],
        "latitude": 50.11667,
        "longitude": 129.43333,
        "name": "Завитинск"
    },
    {
        "keys": [
            "Заводоуковск"
        ],
        "latitude": 56.5,
        "longitude": 66.55,
        "name": "Заводоуковск"
    },
    {
        "keys": [
            "Заволжск"
        ],
        "latitude": 57.48333,
        "longitude": 42.13333,
        "name": "Заволжск"
    },
    {
        "keys": [
            "Заволжье"
        ],
        "latitude": 56.6425,
        "longitude": 43.39278,
        "name": "Заволжье"
    },
    {
        "keys": [
            "Задонск"
        ],
        "latitude": 52.38333,
        "longitude": 38.91667,
        "name": "Задонск"
    },
    {
        "keys": [
            "Заинск"
        ],
        "latitude": 55.3,
        "longitude": 52.01667,
        "name": "Заинск"
    },
    {
        "keys": [
            "Закаменск"
        ],
        "latitude": 50.38333,
        "longitude": 103.28333,
        "name": "Закаменск"
    },
    {
        "keys": [
            "Заозёрный"
        ],
        "latitude": 55.96667,
        "longitude": 94.7,
        "name": "Заозёрный"
    },
    {
        "keys": [
            "Заозёрск"
        ],
        "latitude": 69.4,
        "longitude": 32.45,
        "name": "Заозёрск"
    },
    {
        "keys": [
            "Западная Двина"
        ],
        "latitude": 56.26667,
        "longitude": 32.08333,
        "name": "Западная Двина"
    },
    {
        "keys": [
            "Заполярный"
        ],
        "latitude": 69.41667,
        "longitude": 30.8,
        "name": "Заполярный"
    },
    {
        "keys": [
            "Зарайск"
        ],
        "latitude": 54.76528,
        "longitude": 38.88361,
        "name": "Зарайск"
    },
    {
        "keys": [
            "Заречный"
        ],
        "latitude": 53.2,
        "longitude": 45.16667,
        "name": "Заречный"
    },
    {
        "keys": [
            "Заречный"
        ],
        "latitude": 56.81667,
        "longitude": 61.31667,
        "name": "Заречный"
    },
    {
        "keys": [
            "Заринск"
        ],
        "latitude": 53.7,
        "longitude": 84.91667,
        "name": "Заринск"
    },
    {
        "keys": [
            "Звенигово"
        ],
        "latitude": 55.96667,
        "longitude": 48.01667,
        "name": "Звенигово"
    },
    {
        "keys": [
            "Звенигород"
        ],
        "latitude": 55.73333,
        "longitude": 36.85,
        "name": "Звенигород"
    },
    {
        "keys": [
            "Зверево"
        ],
        "latitude": 48.01667,
        "longitude": 40.11667,
        "name": "Зверево"
    },
    {
        "keys": [
            "Зеленогорск"
        ],
        "latitude": 56.1,
        "longitude": 94.58333,
        "name": "Зеленогорск"
    },
    {
        "keys": [
            "Зеленогорск"
        ],
        "latitude": 60.2,
        "longitude": 29.7,
        "name": "Зеленогорск"
    },
    {
        "keys": [
            "Зеленоград"
        ],
        "latitude": 55.997917,
        "longitude": 37.190417,
        "name": "Зеленоград"
    },
    {
        "keys": [
            "Зеленоградск"
        ],
        "latitude": 54.95,
        "longitude": 20.48333,
        "name": "Зеленоградск"
    },
    {
        "keys": [
            "Зеленодольск"
        ],
        "latitude": 55.85,
        "longitude": 48.51667,
        "name": "Зеленодольск"
    },
    {
        "keys": [
            "Зеленокумск"
        ],
        "latitude": 44.4070115,
        "longitude": 43.8731235,
        "name": "Зеленокумск"
    },
    {
        "keys": [
            "Зерноград"
        ],
        "latitude": 46.846525,
        "longitude": 40.3040333,
        "name": "Зерноград"
    },
    {
        "keys": [
            "Зея"
        ],
        "latitude": 53.73333,
        "longitude": 127.25,
        "name": "Зея"
    },
    {
        "keys": [
            "Зима"
        ],
        "latitude": 53.91667,
        "longitude": 102.05,
        "name": "Зима"
    },
    {
        "keys": [
            "Златоуст"
        ],
        "latitude": 55.16667,
        "longitude": 59.66667,
        "name": "Златоуст"
    },
    {
        "keys": [
            "Злынка"
        ],
        "latitude": 52.43333,
        "longitude": 31.73333,
        "name": "Злынка"
    },
    {
        "keys": [
            "Змеиногорск"
        ],
        "latitude": 51.16667,
        "longitude": 82.16667,
        "name": "Змеиногорск"
    },
    {
        "keys": [
            "Знаменск"
        ],
        "latitude": 48.58333,
        "longitude": 45.75,
        "name": "Знаменск"
    },
    {
        "keys": [
            "Зубцов"
        ],
        "latitude": 56.16667,
        "longitude": 34.58333,
        "name": "Зубцов"
    },
    {
        "keys": [
            "Зуевка"
        ],
        "latitude": 58.403333,
        "longitude": 51.130361,
        "name": "Зуевка"
    },
    {
        "keys": [
            "Ивангород"
        ],
        "latitude": 59.37649,
        "longitude": 28.219712,
        "name": "Ивангород"
    },
    {
        "keys": [
            "Иваново"
        ],
        "latitude": 56.99667,
        "longitude": 40.98194,
        "name": "Иваново"
    },
    {
        "keys": [
            "Ивантеевка"
        ],
        "latitude": 55.97,
        "longitude": 37.92,
        "name": "Ивантеевка"
    },
    {
        "keys": [
            "Ивдель"
        ],
        "latitude": 60.68333,
        "longitude": 60.43333,
        "name": "Ивдель"
    },
    {
        "keys": [
            "Игарка"
        ],
        "latitude": 67.46667,
        "longitude": 86.56667,
        "name": "Игарка"
    },
    {
        "keys": [
            "Ижевск"
        ],
        "latitude": 56.85306,
        "longitude": 53.21222,
        "name": "Ижевск"
    },
    {
        "keys": [
            "Избербаш"
        ],
        "latitude": 42.56667,
        "longitude": 47.86667,
        "name": "Избербаш"
    },
    {
        "keys": [
            "Изобильный"
        ],
        "latitude": 45.36667,
        "longitude": 41.71667,
        "name": "Изобильный"
    },
    {
        "keys": [
            "Иланский"
        ],
        "latitude": 56.23333,
        "longitude": 96.06667,
        "name": "Иланский"
    },
    {
        "keys": [
            "Инза"
        ],
        "latitude": 53.85,
        "longitude": 46.35,
        "name": "Инза"
    },
    {
        "keys": [
            "Инкерман"
        ],
        "latitude": 44.61417,
        "longitude": 33.60833,
        "name": "Инкерман"
    },
    {
        "keys": [
            "Иннополис"
        ],
        "latitude": 55.763633,
        "longitude": 48.736553,
        "name": "Иннополис"
    },
    {
        "keys": [
            "Инсар"
        ],
        "latitude": 53.86667,
        "longitude": 44.36667,
        "name": "Инсар"
    },
    {
        "keys": [
            "Инта"
        ],
        "latitude": 66.0398139,
        "longitude": 60.1315194,
        "name": "Инта"
    },
    {
        "keys": [
            "Ипатово"
        ],
        "latitude": 45.71667,
        "longitude": 42.9,
        "name": "Ипатово"
    },
    {
        "keys": [
            "Ирбит"
        ],
        "latitude": 57.66667,
        "longitude": 63.06667,
        "name": "Ирбит"
    },
    {
        "keys": [
            "Иркутск"
        ],
        "latitude": 52.28333,
        "longitude": 104.3,
        "name": "Иркутск"
    },
    {
        "keys": [
            "Исилькуль"
        ],
        "latitude": 54.90889,
        "longitude": 71.26056,
        "name": "Исилькуль"
    },
    {
        "keys": [
            "Искитим"
        ],
        "latitude": 54.63333,
        "longitude": 83.3,
        "name": "Искитим"
    },
    {
        "keys": [
            "Истра"
        ],
        "latitude": 55.91667,
        "longitude": 36.86667,
        "name": "Истра"
    },
    {
        "keys": [
            "Ишим"
        ],
        "latitude": 56.11667,
        "longitude": 69.5,
        "name": "Ишим"
    },
    {
        "keys": [
            "Ишимбай"
        ],
        "latitude": 53.45444,
        "longitude": 56.04389,
        "name": "Ишимбай"
    },
    {
        "keys": [
            "Йошкар-Ола"
        ],
        "latitude": 56.632777777778,
        "longitude": 47.895833333333,
        "name": "Йошкар-Ола"
    },
    {
        "keys": [
            "Кадников"
        ],
        "latitude": 59.5,
        "longitude": 40.33333,
        "name": "Кадников"
    },
    {
        "keys": [
            "Казань"
        ],
        "latitude": 55.79083,
        "longitude": 49.11444,
        "name": "Казань"
    },
    {
        "keys": [
            "Калач-на-Дону"
        ],
        "latitude": 48.68333,
        "longitude": 43.53333,
        "name": "Калач-на-Дону"
    },
    {
        "keys": [
            "Калач"
        ],
        "latitude": 50.42583,
        "longitude": 41.01556,
        "name": "Калач"
    },
    {
        "keys": [
            "Калачинск"
        ],
        "latitude": 55.05,
        "longitude": 74.58333,
        "name": "Калачинск"
    },
    {
        "keys": [
            "Калининград"
        ],
        "latitude": 54.71667,
        "longitude": 20.5,
        "name": "Калининград"
    },
    {
        "keys": [
            "Калининск"
        ],
        "latitude": 51.5,
        "longitude": 44.45,
        "name": "Калининск"
    },
    {
        "keys": [
            "Калтан"
        ],
        "latitude": 53.51667,
        "longitude": 87.26667,
        "name": "Калтан"
    },
    {
        "keys": [
            "Калуга"
        ],
        "latitude": 54.53333,
        "longitude": 36.26667,
        "name": "Калуга"
    },
    {
        "keys": [
            "Калязин"
        ],
        "latitude": 57.23333,
        "longitude": 37.85,
        "name": "Калязин"
    },
    {
        "keys": [
            "Камбарка"
        ],
        "latitude": 56.26667,
        "longitude": 54.2,
        "name": "Камбарка"
    },
    {
        "keys": [
            "Каменка"
        ],
        "latitude": 53.18333,
        "longitude": 44.05,
        "name": "Каменка"
    },
    {
        "keys": [
            "Каменногорск"
        ],
        "latitude": 60.95081,
        "longitude": 29.130882,
        "name": "Каменногорск"
    },
    {
        "keys": [
            "Каменск-Уральский"
        ],
        "latitude": 56.4,
        "longitude": 61.93333,
        "name": "Каменск-Уральский"
    },
    {
        "keys": [
            "Каменск-Шахтинский"
        ],
        "latitude": 48.31667,
        "longitude": 40.26667,
        "name": "Каменск-Шахтинский"
    },
    {
        "keys": [
            "Камень-на-Оби"
        ],
        "latitude": 53.79194,
        "longitude": 81.34861,
        "name": "Камень-на-Оби"
    },
    {
        "keys": [
            "Камешково"
        ],
        "latitude": 56.34917,
        "longitude": 40.99778,
        "name": "Камешково"
    },
    {
        "keys": [
            "Камызяк"
        ],
        "latitude": 46.11556,
        "longitude": 48.07694,
        "name": "Камызяк"
    },
    {
        "keys": [
            "Камышин"
        ],
        "latitude": 50.08333,
        "longitude": 45.4,
        "name": "Камышин"
    },
    {
        "keys": [
            "Камышлов"
        ],
        "latitude": 56.85,
        "longitude": 62.71667,
        "name": "Камышлов"
    },
    {
        "keys": [
            "Канаш"
        ],
        "latitude": 55.50694,
        "longitude": 47.49139,
        "name": "Канаш"
    },
    {
        "keys": [
            "Кандалакша"
        ],
        "latitude": 67.15694,
        "longitude": 32.41167,
        "name": "Кандалакша"
    },
    {
        "keys": [
            "Канск"
        ],
        "latitude": 56.2,
        "longitude": 95.7,
        "name": "Канск"
    },
    {
        "keys": [
            "Карабаново"
        ],
        "latitude": 56.30889,
        "longitude": 38.70139,
        "name": "Карабаново"
    },
    {
        "keys": [
            "Карабаш"
        ],
        "latitude": 55.48333,
        "longitude": 60.2,
        "name": "Карабаш"
    },
    {
        "keys": [
            "Карабулак"
        ],
        "latitude": 43.306285,
        "longitude": 44.909763,
        "name": "Карабулак"
    },
    {
        "keys": [
            "Карасук"
        ],
        "latitude": 53.73333,
        "longitude": 78.03333,
        "name": "Карасук"
    },
    {
        "keys": [
            "Карачаевск"
        ],
        "latitude": 43.769713,
        "longitude": 41.911369,
        "name": "Карачаевск"
    },
    {
        "keys": [
            "Карачев"
        ],
        "latitude": 53.11667,
        "longitude": 34.98333,
        "name": "Карачев"
    },
    {
        "keys": [
            "Каргат"
        ],
        "latitude": 55.2,
        "longitude": 80.28333,
        "name": "Каргат"
    },
    {
        "keys": [
            "Каргополь"
        ],
        "latitude": 61.5,
        "longitude": 38.93333,
        "name": "Каргополь"
    },
    {
        "keys": [
            "Карпинск"
        ],
        "latitude": 59.76667,
        "longitude": 60.0,
        "name": "Карпинск"
    },
    {
        "keys": [
            "Карталы"
        ],
        "latitude": 53.05,
        "longitude": 60.65,
        "name": "Карталы"
    },
    {
        "keys": [
            "Касимов"
        ],
        "latitude": 54.95,
        "longitude": 41.39722,
        "name": "Касимов"
    },
    {
        "keys": [
            "Касли"
        ],
        "latitude": 55.88333,
        "longitude": 60.75,
        "name": "Касли"
    },
    {
        "keys": [
            "Каспийск"
        ],
        "latitude": 42.88333,
        "longitude": 47.63333,
        "name": "Каспийск"
    },
    {
        "keys": [
            "Катав-Ивановск"
        ],
        "latitude": 54.75,
        "longitude": 58.2,
        "name": "Катав-Ивановск"
    },
    {
        "keys": [
            "Катайск"
        ],
        "latitude": 56.3,
        "longitude": 62.56667,
        "name": "Катайск"
    },
    {
        "keys": [
            "Качканар"
        ],
        "latitude": 58.7,
        "longitude": 59.48333,
        "name": "Качканар"
    },
    {
        "keys": [
            "Кашин"
        ],
        "latitude": 57.35,
        "longitude": 37.61667,
        "name": "Кашин"
    },
    {
        "keys": [
            "Кашира"
        ],
        "latitude": 54.83333,
        "longitude": 38.15,
        "name": "Кашира"
    },
    {
        "keys": [
            "Кедровый"
        ],
        "latitude": 57.56667,
        "longitude": 79.56667,
        "name": "Кедровый"
    },
    {
        "keys": [
            "Кемерово"
        ],
        "latitude": 55.35417,
        "longitude": 86.08972,
        "name": "Кемерово"
    },
    {
        "keys": [
            "Кемь"
        ],
        "latitude": 64.95,
        "longitude": 34.6,
        "name": "Кемь"
    },
    {
        "keys": [
            "Керчь"
        ],
        "latitude": 45.33861,
        "longitude": 36.46806,
        "name": "Керчь"
    },
    {
        "keys": [
            "Кизел"
        ],
        "latitude": 59.05,
        "longitude": 57.65,
        "name": "Кизел"
    },
    {
        "keys": [
            "Кизилюрт"
        ],
        "latitude": 43.2,
        "longitude": 46.86667,
        "name": "Кизилюрт"
    },
    {
        "keys": [
            "Кизляр"
        ],
        "latitude": 43.850245,
        "longitude": 46.71698,
        "name": "Кизляр"
    },
    {
        "keys": [
            "Кимовск"
        ],
        "latitude": 53.96667,
        "longitude": 38.53333,
        "name": "Кимовск"
    },
    {
        "keys": [
            "Кимры"
        ],
        "latitude": 56.86667,
        "longitude": 37.35,
        "name": "Кимры"
    },
    {
        "keys": [
            "Кингисепп"
        ],
        "latitude": 59.378053,
        "longitude": 28.601209,
        "name": "Кингисепп"
    },
    {
        "keys": [
            "Кинель"
        ],
        "latitude": 53.23333,
        "longitude": 50.61667,
        "name": "Кинель"
    },
    {
        "keys": [
            "Кинешма"
        ],
        "latitude": 57.45,
        "longitude": 42.15,
        "name": "Кинешма"
    },
    {
        "keys": [
            "Киреевск"
        ],
        "latitude": 53.93333,
        "longitude": 37.93333,
        "name": "Киреевск"
    },
    {
        "keys": [
            "Киренск"
        ],
        "latitude": 57.78333,
        "longitude": 108.1,
        "name": "Киренск"
    },
    {
        "keys": [
            "Киржач"
        ],
        "latitude": 56.15,
        "longitude": 38.86667,
        "name": "Киржач"
    },
    {
        "keys": [
            "Кириллов"
        ],
        "latitude": 59.86667,
        "longitude": 38.38333,
        "name": "Кириллов"
    },
    {
        "keys": [
            "Кириши"
        ],
        "latitude": 59.449695,
        "longitude": 32.008716,
        "name": "Кириши"
    },
    {
        "keys": [
            "Киров"
        ],
        "latitude": 54.08333,
        "longitude": 34.3,
        "name": "Киров"
    },
    {
        "keys": [
            "Киров"
        ],
        "latitude": 58.6,
        "longitude": 49.65,
        "name": "Киров"
    },
    {
        "keys": [
            "Кировград"
        ],
        "latitude": 57.43333,
        "longitude": 60.06667,
        "name": "Кировград"
    },
    {
        "keys": [
            "Кирово-Чепецк"
        ],
        "latitude": 58.55,
        "longitude": 50.01667,
        "name": "Кирово-Чепецк"
    },
    {
        "keys": [
            "Кировск"
        ],
        "latitude": 59.87533,
        "longitude": 30.981457,
        "name": "Кировск"
    },
    {
        "keys": [
            "Кировск"
        ],
        "latitude": 67.61417,
        "longitude": 33.67167,
        "name": "Кировск"
    },
    {
        "keys": [
            "Кирс"
        ],
        "latitude": 59.337167,
        "longitude": 52.245472,
        "name": "Кирс"
    },
    {
        "keys": [
            "Кирсанов"
        ],
        "latitude": 52.65,
        "longitude": 42.73333,
        "name": "Кирсанов"
    },
    {
        "keys": [
            "Киселёвск"
        ],
        "latitude": 53.98333,
        "longitude": 86.7,
        "name": "Киселёвск"
    },
    {
        "keys": [
            "Кисловодск"
        ],
        "latitude": 43.90333,
        "longitude": 42.72444,
        "name": "Кисловодск"
    },
    {
        "keys": [
            "Клин"
        ],
        "latitude": 56.33389,
        "longitude": 36.7125,
        "name": "Клин"
    },
    {
        "keys": [
            "Клинцы"
        ],
        "latitude": 52.75278,
        "longitude": 32.23611,
        "name": "Клинцы"
    },
    {
        "keys": [
            "Княгинино"
        ],
        "latitude": 55.81667,
        "longitude": 45.03333,
        "name": "Княгинино"
    },
    {
        "keys": [
            "Ковдор"
        ],
        "latitude": 67.55944,
        "longitude": 30.46667,
        "name": "Ковдор"
    },
    {
        "keys": [
            "Ковров"
        ],
        "latitude": 56.36056,
        "longitude": 41.31972,
        "name": "Ковров"
    },
    {
        "keys": [
            "Ковылкино"
        ],
        "latitude": 54.03333,
        "longitude": 43.91667,
        "name": "Ковылкино"
    },
    {
        "keys": [
            "Когалым"
        ],
        "latitude": 62.26667,
        "longitude": 74.48333,
        "name": "Когалым"
    },
    {
        "keys": [
            "Кодинск"
        ],
        "latitude": 58.6,
        "longitude": 99.18333,
        "name": "Кодинск"
    },
    {
        "keys": [
            "Козельск"
        ],
        "latitude": 54.03333,
        "longitude": 35.78333,
        "name": "Козельск"
    },
    {
        "keys": [
            "Козловка"
        ],
        "latitude": 55.83333,
        "longitude": 48.25,
        "name": "Козловка"
    },
    {
        "keys": [
            "Козьмодемьянск"
        ],
        "latitude": 56.33333,
        "longitude": 46.56667,
        "name": "Козьмодемьянск"
    },
    {
        "keys": [
            "Кола"
        ],
        "latitude": 68.88306,
        "longitude": 33.02194,
        "name": "Кола"
    },
    {
        "keys": [
            "Кологрив"
        ],
        "latitude": 58.8252278,
        "longitude": 44.311444,
        "name": "Кологрив"
    },
    {
        "keys": [
            "Коломна"
        ],
        "latitude": 55.09389,
        "longitude": 38.76806,
        "name": "Коломна"
    },
    {
        "keys": [
            "Колпашево"
        ],
        "latitude": 58.31667,
        "longitude": 82.91667,
        "name": "Колпашево"
    },
    {
        "keys": [
            "Колпино"
        ],
        "latitude": 59.75,
        "longitude": 30.6,
        "name": "Колпино"
    },
    {
        "keys": [
            "Колтуши"
        ],
        "latitude": 59.932919,
        "longitude": 30.655377,
        "name": "Колтуши"
    },
    {
        "keys": [
            "Кольчугино"
        ],
        "latitude": 56.3,
        "longitude": 39.38333,
        "name": "Кольчугино"
    },
    {
        "keys": [
            "Коммунар"
        ],
        "latitude": 59.621609,
        "longitude": 30.393483,
        "name": "Коммунар"
    },
    {
        "keys": [
            "Комсомольск-на-Амуре"
        ],
        "latitude": 50.55,
        "longitude": 137.0,
        "name": "Комсомольск-на-Амуре"
    },
    {
        "keys": [
            "Комсомольск"
        ],
        "latitude": 57.03333,
        "longitude": 40.38333,
        "name": "Комсомольск"
    },
    {
        "keys": [
            "Конаково"
        ],
        "latitude": 56.7,
        "longitude": 36.76667,
        "name": "Конаково"
    },
    {
        "keys": [
            "Кондопога"
        ],
        "latitude": 62.2,
        "longitude": 34.26667,
        "name": "Кондопога"
    },
    {
        "keys": [
            "Кондрово"
        ],
        "latitude": 54.8,
        "longitude": 35.93333,
        "name": "Кондрово"
    },
    {
        "keys": [
            "Константиновск"
        ],
        "latitude": 47.58333,
        "longitude": 41.1,
        "name": "Константиновск"
    },
    {
        "keys": [
            "Копейск"
        ],
        "latitude": 55.1,
        "longitude": 61.61667,
        "name": "Копейск"
    },
    {
        "keys": [
            "Кораблино"
        ],
        "latitude": 53.91667,
        "longitude": 40.01667,
        "name": "Кораблино"
    },
    {
        "keys": [
            "Кореновск"
        ],
        "latitude": 45.46667,
        "longitude": 39.45,
        "name": "Кореновск"
    },
    {
        "keys": [
            "Коркино"
        ],
        "latitude": 54.88333,
        "longitude": 61.4,
        "name": "Коркино"
    },
    {
        "keys": [
            "Королёв"
        ],
        "latitude": 55.91667,
        "longitude": 37.81667,
        "name": "Королёв"
    },
    {
        "keys": [
            "Короча"
        ],
        "latitude": 50.81361,
        "longitude": 37.18139,
        "name": "Короча"
    },
    {
        "keys": [
            "Корсаков"
        ],
        "latitude": 46.63333,
        "longitude": 142.76667,
        "name": "Корсаков"
    },
    {
        "keys": [
            "Коряжма"
        ],
        "latitude": 61.3,
        "longitude": 47.16667,
        "name": "Коряжма"
    },
    {
        "keys": [
            "Костерёво"
        ],
        "latitude": 55.93333,
        "longitude": 39.63333,
        "name": "Костерёво"
    },
    {
        "keys": [
            "Костомукша"
        ],
        "latitude": 64.58333,
        "longitude": 30.6,
        "name": "Костомукша"
    },
    {
        "keys": [
            "Кострома"
        ],
        "latitude": 57.76667,
        "longitude": 40.93333,
        "name": "Кострома"
    },
    {
        "keys": [
            "Котельники"
        ],
        "latitude": 55.6625,
        "longitude": 37.86722,
        "name": "Котельники"
    },
    {
        "keys": [
            "Котельниково"
        ],
        "latitude": 47.63333,
        "longitude": 43.13333,
        "name": "Котельниково"
    },
    {
        "keys": [
            "Котельнич"
        ],
        "latitude": 58.3,
        "longitude": 48.33333,
        "name": "Котельнич"
    },
    {
        "keys": [
            "Котлас"
        ],
        "latitude": 61.25,
        "longitude": 46.65,
        "name": "Котлас"
    },
    {
        "keys": [
            "Котово"
        ],
        "latitude": 50.31667,
        "longitude": 44.8,
        "name": "Котово"
    },
    {
        "keys": [
            "Котовск"
        ],
        "latitude": 52.58333,
        "longitude": 41.5,
        "name": "Котовск"
    },
    {
        "keys": [
            "Кохма"
        ],
        "latitude": 56.93333,
        "longitude": 41.08333,
        "name": "Кохма"
    },
    {
        "keys": [
            "Красавино"
        ],
        "latitude": 60.96667,
        "longitude": 46.48333,
        "name": "Красавино"
    },
    {
        "keys": [
            "Красноармейск"
        ],
        "latitude": 56.12278,
        "longitude": 38.14611,
        "name": "Красноармейск"
    },
    {
        "keys": [
            "Красноармейск"
        ],
        "latitude": 51.01667,
        "longitude": 45.7,
        "name": "Красноармейск"
    },
    {
        "keys": [
            "Красновишерск"
        ],
        "latitude": 60.4,
        "longitude": 57.06667,
        "name": "Красновишерск"
    },
    {
        "keys": [
            "Красногорск"
        ],
        "latitude": 55.81667,
        "longitude": 37.33333,
        "name": "Красногорск"
    },
    {
        "keys": [
            "Краснодар"
        ],
        "latitude": 45.03333,
        "longitude": 38.98333,
        "name": "Краснодар"
    },
    {
        "keys": [
            "Красное Село"
        ],
        "latitude": 59.733745,
        "longitude": 30.086205,
        "name": "Красное Село"
    },
    {
        "keys": [
            "Краснозаводск"
        ],
        "latitude": 56.43806,
        "longitude": 38.22944,
        "name": "Краснозаводск"
    },
    {
        "keys": [
            "Краснознаменск"
        ],
        "latitude": 54.95,
        "longitude": 22.5,
        "name": "Краснознаменск"
    },
    {
        "keys": [
            "Краснознаменск"
        ],
        "latitude": 55.6,
        "longitude": 37.03333,
        "name": "Краснознаменск"
    },
    {
        "keys": [
            "Краснокаменск"
        ],
        "latitude": 50.1,
        "longitude": 118.03333,
        "name": "Краснокаменск"
    },
    {
        "keys": [
            "Краснокамск"
        ],
        "latitude": 58.08333,
        "longitude": 55.75,
        "name": "Краснокамск"
    },
    {
        "keys": [
            "Красноперекопск"
        ],
        "latitude": 45.955306,
        "longitude": 33.795,
        "name": "Красноперекопск"
    },
    {
        "keys": [
            "Краснослободск"
        ],
        "latitude": 48.7,
        "longitude": 44.566666666667,
        "name": "Краснослободск"
    },
    {
        "keys": [
            "Краснослободск"
        ],
        "latitude": 54.43333,
        "longitude": 43.78333,
        "name": "Краснослободск"
    },
    {
        "keys": [
            "Краснотурьинск"
        ],
        "latitude": 59.76667,
        "longitude": 60.2,
        "name": "Краснотурьинск"
    },
    {
        "keys": [
            "Красноуральск"
        ],
        "latitude": 58.35,
        "longitude": 60.05,
        "name": "Красноуральск"
    },
    {
        "keys": [
            "Красноуфимск"
        ],
        "latitude": 56.61667,
        "longitude": 57.76667,
        "name": "Красноуфимск"
    },
    {
        "keys": [
            "Красноярск"
        ],
        "latitude": 56.012083,
        "longitude": 92.871295,
        "name": "Красноярск"
    },
    {
        "keys": [
            "Красный Кут"
        ],
        "latitude": 50.95,
        "longitude": 46.96667,
        "name": "Красный Кут"
    },
    {
        "keys": [
            "Красный Сулин"
        ],
        "latitude": 47.88333,
        "longitude": 40.06667,
        "name": "Красный Сулин"
    },
    {
        "keys": [
            "Красный Холм"
        ],
        "latitude": 58.06329,
        "longitude": 37.122983,
        "name": "Красный Холм"
    },
    {
        "keys": [
            "Кремёнки"
        ],
        "latitude": 54.88917,
        "longitude": 37.12333,
        "name": "Кремёнки"
    },
    {
        "keys": [
            "Кронштадт"
        ],
        "latitude": 60.0,
        "longitude": 29.76667,
        "name": "Кронштадт"
    },
    {
        "keys": [
            "Кропоткин"
        ],
        "latitude": 45.43333,
        "longitude": 40.56667,
        "name": "Кропоткин"
    },
    {
        "keys": [
            "Крымск"
        ],
        "latitude": 44.93333,
        "longitude": 38.0,
        "name": "Крымск"
    },
    {
        "keys": [
            "Кстово"
        ],
        "latitude": 56.15167,
        "longitude": 44.19556,
        "name": "Кстово"
    },
    {
        "keys": [
            "Кубинка"
        ],
        "latitude": 55.57639,
        "longitude": 36.69472,
        "name": "Кубинка"
    },
    {
        "keys": [
            "Кувандык"
        ],
        "latitude": 51.48333,
        "longitude": 57.35,
        "name": "Кувандык"
    },
    {
        "keys": [
            "Кувшиново"
        ],
        "latitude": 57.03333,
        "longitude": 34.16667,
        "name": "Кувшиново"
    },
    {
        "keys": [
            "Кудрово"
        ],
        "latitude": 59.908489,
        "longitude": 30.513569,
        "name": "Кудрово"
    },
    {
        "keys": [
            "Кудымкар"
        ],
        "latitude": 59.01667,
        "longitude": 54.66667,
        "name": "Кудымкар"
    },
    {
        "keys": [
            "Кузнецк"
        ],
        "latitude": 53.11667,
        "longitude": 46.6,
        "name": "Кузнецк"
    },
    {
        "keys": [
            "Куйбышев"
        ],
        "latitude": 55.45028,
        "longitude": 78.3075,
        "name": "Куйбышев"
    },
    {
        "keys": [
            "Кукмор"
        ],
        "latitude": 56.1825,
        "longitude": 50.90639,
        "name": "Кукмор"
    },
    {
        "keys": [
            "Кулебаки"
        ],
        "latitude": 55.41667,
        "longitude": 42.51667,
        "name": "Кулебаки"
    },
    {
        "keys": [
            "Кумертау"
        ],
        "latitude": 52.76667,
        "longitude": 55.78333,
        "name": "Кумертау"
    },
    {
        "keys": [
            "Кунгур"
        ],
        "latitude": 57.43333,
        "longitude": 56.93333,
        "name": "Кунгур"
    },
    {
        "keys": [
            "Купино"
        ],
        "latitude": 54.36667,
        "longitude": 77.3,
        "name": "Купино"
    },
    {
        "keys": [
            "Курган"
        ],
        "latitude": 55.44083,
        "longitude": 65.34111,
        "name": "Курган"
    },
    {
        "keys": [
            "Курганинск"
        ],
        "latitude": 44.88333,
        "longitude": 40.6,
        "name": "Курганинск"
    },
    {
        "keys": [
            "Курильск"
        ],
        "latitude": 45.25,
        "longitude": 147.883333,
        "name": "Курильск"
    },
    {
        "keys": [
            "Курлово"
        ],
        "latitude": 55.45,
        "longitude": 40.61667,
        "name": "Курлово"
    },
    {
        "keys": [
            "Куровское"
        ],
        "latitude": 55.58333,
        "longitude": 38.91667,
        "name": "Куровское"
    },
    {
        "keys": [
            "Курск"
        ],
        "latitude": 51.71667,
        "longitude": 36.18333,
        "name": "Курск"
    },
    {
        "keys": [
            "Куртамыш"
        ],
        "latitude": 54.9,
        "longitude": 64.43333,
        "name": "Куртамыш"
    },
    {
        "keys": [
            "Курчалой"
        ],
        "latitude": 43.20444,
        "longitude": 46.087812,
        "name": "Курчалой"
    },
    {
        "keys": [
            "Курчатов"
        ],
        "latitude": 51.66667,
        "longitude": 35.65,
        "name": "Курчатов"
    },
    {
        "keys": [
            "Куса"
        ],
        "latitude": 55.33333,
        "longitude": 59.43333,
        "name": "Куса"
    },
    {
        "keys": [
            "Кушва"
        ],
        "latitude": 58.28333,
        "longitude": 59.73333,
        "name": "Кушва"
    },
    {
        "keys": [
            "Кызыл"
        ],
        "latitude": 51.7,
        "longitude": 94.36667,
        "name": "Кызыл"
    },
    {
        "keys": [
            "Кыштым"
        ],
        "latitude": 55.7,
        "longitude": 60.55,
        "name": "Кыштым"
    },
    {
        "keys": [
            "Кяхта"
        ],
        "latitude": 50.35,
        "longitude": 106.45,
        "name": "Кяхта"
    },
    {
        "keys": [
            "Лабинск"
        ],
        "latitude": 44.633338,
        "longitude": 40.733311,
        "name": "Лабинск"
    },
    {
        "keys": [
            "Лабытнанги"
        ],
        "latitude": 66.65806,
        "longitude": 66.38389,
        "name": "Лабытнанги"
    },
    {
        "keys": [
            "Лагань"
        ],
        "latitude": 45.3925,
        "longitude": 47.355,
        "name": "Лагань"
    },
    {
        "keys": [
            "Ладушкин"
        ],
        "latitude": 54.56667,
        "longitude": 20.16667,
        "name": "Ладушкин"
    },
    {
        "keys": [
            "Лаишево"
        ],
        "latitude": 55.4,
        "longitude": 49.55,
        "name": "Лаишево"
    },
    {
        "keys": [
            "Лакинск"
        ],
        "latitude": 56.01694,
        "longitude": 39.94944,
        "name": "Лакинск"
    },
    {
        "keys": [
            "Лангепас"
        ],
        "latitude": 61.25,
        "longitude": 75.16667,
        "name": "Лангепас"
    },
    {
        "keys": [
            "Лахденпохья"
        ],
        "latitude": 61.51667,
        "longitude": 30.2,
        "name": "Лахденпохья"
    },
    {
        "keys": [
            "Лебедянь"
        ],
        "latitude": 53.0115528,
        "longitude": 39.1281167,
        "name": "Лебедянь"
    },
    {
        "keys": [
            "Лениногорск"
        ],
        "latitude": 54.5988694,
        "longitude": 52.4422722,
        "name": "Лениногорск"
    },
    {
        "keys": [
            "Ленинск-Кузнецкий"
        ],
        "latitude": 54.65,
        "longitude": 86.16667,
        "name": "Ленинск-Кузнецкий"
    },
    {
        "keys": [
            "Ленинск"
        ],
        "latitude": 48.7,
        "longitude": 45.2,
        "name": "Ленинск"
    },
    {
        "keys": [
            "Ленск"
        ],
        "latitude": 60.71667,
        "longitude": 114.9,
        "name": "Ленск"
    },
    {
        "keys": [
            "Лермонтов"
        ],
        "latitude": 44.10528,
        "longitude": 42.97167,
        "name": "Лермонтов"
    },
    {
        "keys": [
            "Лесной"
        ],
        "latitude": 58.63333,
        "longitude": 59.78333,
        "name": "Лесной"
    },
    {
        "keys": [
            "Лесозаводск"
        ],
        "latitude": 45.46667,
        "longitude": 133.4,
        "name": "Лесозаводск"
    },
    {
        "keys": [
            "Лесосибирск"
        ],
        "latitude": 58.23333,
        "longitude": 92.48333,
        "name": "Лесосибирск"
    },
    {
        "keys": [
            "Ливны"
        ],
        "latitude": 52.425306,
        "longitude": 37.608306,
        "name": "Ливны"
    },
    {
        "keys": [
            "Ликино-Дулёво"
        ],
        "latitude": 55.71528,
        "longitude": 38.95778,
        "name": "Ликино-Дулёво"
    },
    {
        "keys": [
            "Липецк"
        ],
        "latitude": 52.61667,
        "longitude": 39.6,
        "name": "Липецк"
    },
    {
        "keys": [
            "Липки"
        ],
        "latitude": 53.95,
        "longitude": 37.7,
        "name": "Липки"
    },
    {
        "keys": [
            "Лиски"
        ],
        "latitude": 50.98222,
        "longitude": 39.49944,
        "name": "Лиски"
    },
    {
        "keys": [
            "Лихославль"
        ],
        "latitude": 57.11667,
        "longitude": 35.46667,
        "name": "Лихославль"
    },
    {
        "keys": [
            "Лобня"
        ],
        "latitude": 56.01194,
        "longitude": 37.47444,
        "name": "Лобня"
    },
    {
        "keys": [
            "Лодейное Поле"
        ],
        "latitude": 60.734305,
        "longitude": 33.543183,
        "name": "Лодейное Поле"
    },
    {
        "keys": [
            "Ломоносов"
        ],
        "latitude": 59.91074,
        "longitude": 29.776466,
        "name": "Ломоносов"
    },
    {
        "keys": [
            "Лосино-Петровский"
        ],
        "latitude": 55.86667,
        "longitude": 38.2,
        "name": "Лосино-Петровский"
    },
    {
        "keys": [
            "Луга"
        ],
        "latitude": 58.733333333333,
        "longitude": 29.85,
        "name": "Луга"
    },
    {
        "keys": [
            "Луза"
        ],
        "latitude": 60.61667,
        "longitude": 47.28333,
        "name": "Луза"
    },
    {
        "keys": [
            "Лукоянов"
        ],
        "latitude": 55.03833,
        "longitude": 44.49778,
        "name": "Лукоянов"
    },
    {
        "keys": [
            "Луховицы"
        ],
        "latitude": 54.96667,
        "longitude": 39.025,
        "name": "Луховицы"
    },
    {
        "keys": [
            "Лысково"
        ],
        "latitude": 56.01278,
        "longitude": 45.02528,
        "name": "Лысково"
    },
    {
        "keys": [
            "Лысьва"
        ],
        "latitude": 58.1003806,
        "longitude": 57.8043278,
        "name": "Лысьва"
    },
    {
        "keys": [
            "Лыткарино"
        ],
        "latitude": 55.58361,
        "longitude": 37.90556,
        "name": "Лыткарино"
    },
    {
        "keys": [
            "Льгов"
        ],
        "latitude": 51.66667,
        "longitude": 35.26667,
        "name": "Льгов"
    },
    {
        "keys": [
            "Любань"
        ],
        "latitude": 59.349301,
        "longitude": 31.24858,
        "name": "Любань"
    },
    {
        "keys": [
            "Люберцы"
        ],
        "latitude": 55.68139,
        "longitude": 37.89389,
        "name": "Люберцы"
    },
    {
        "keys": [
            "Любим"
        ],
        "latitude": 58.35,
        "longitude": 40.7,
        "name": "Любим"
    },
    {
        "keys": [
            "Людиново"
        ],
        "latitude": 53.86667,
        "longitude": 34.46667,
        "name": "Людиново"
    },
    {
        "keys": [
            "Лянтор"
        ],
        "latitude": 61.61667,
        "longitude": 72.16667,
        "name": "Лянтор"
    },
    {
        "keys": [
            "Магадан"
        ],
        "latitude": 59.56667,
        "longitude": 150.8,
        "name": "Магадан"
    },
    {
        "keys": [
            "Магас"
        ],
        "latitude": 43.16667,
        "longitude": 44.81667,
        "name": "Магас"
    },
    {
        "keys": [
            "Магнитогорск"
        ],
        "latitude": 53.38333,
        "longitude": 59.03333,
        "name": "Магнитогорск"
    },
    {
        "keys": [
            "Майкоп"
        ],
        "latitude": 44.611,
        "longitude": 40.111,
        "name": "Майкоп"
    },
    {
        "keys": [
            "Майский"
        ],
        "latitude": 43.630508,
        "longitude": 44.067733,
        "name": "Майский"
    },
    {
        "keys": [
            "Макаров"
        ],
        "latitude": 48.61667,
        "longitude": 142.78333,
        "name": "Макаров"
    },
    {
        "keys": [
            "Макарьев"
        ],
        "latitude": 57.88333,
        "longitude": 43.8,
        "name": "Макарьев"
    },
    {
        "keys": [
            "Макушино"
        ],
        "latitude": 55.2,
        "longitude": 67.25,
        "name": "Макушино"
    },
    {
        "keys": [
            "Малая Вишера"
        ],
        "latitude": 58.85,
        "longitude": 32.21667,
        "name": "Малая Вишера"
    },
    {
        "keys": [
            "Малгобек"
        ],
        "latitude": 43.508882,
        "longitude": 44.585563,
        "name": "Малгобек"
    },
    {
        "keys": [
            "Малмыж"
        ],
        "latitude": 56.52278,
        "longitude": 50.68083,
        "name": "Малмыж"
    },
    {
        "keys": [
            "Малоархангельск"
        ],
        "latitude": 52.4,
        "longitude": 36.5,
        "name": "Малоархангельск"
    },
    {
        "keys": [
            "Малоярославец"
        ],
        "latitude": 55.0,
        "longitude": 36.46667,
        "name": "Малоярославец"
    },
    {
        "keys": [
            "Мамадыш"
        ],
        "latitude": 55.7,
        "longitude": 51.4,
        "name": "Мамадыш"
    },
    {
        "keys": [
            "Мамоново"
        ],
        "latitude": 54.46667,
        "longitude": 19.93333,
        "name": "Мамоново"
    },
    {
        "keys": [
            "Мантурово"
        ],
        "latitude": 58.33333,
        "longitude": 44.76667,
        "name": "Мантурово"
    },
    {
        "keys": [
            "Мариинск"
        ],
        "latitude": 56.21667,
        "longitude": 87.75,
        "name": "Мариинск"
    },
    {
        "keys": [
            "Мариинский Посад"
        ],
        "latitude": 56.11667,
        "longitude": 47.71667,
        "name": "Мариинский Посад"
    },
    {
        "keys": [
            "Маркс"
        ],
        "latitude": 51.7,
        "longitude": 46.75,
        "name": "Маркс"
    },
    {
        "keys": [
            "Махачкала"
        ],
        "latitude": 42.98333,
        "longitude": 47.5,
        "name": "Махачкала"
    },
    {
        "keys": [
            "Мглин"
        ],
        "latitude": 53.06111,
        "longitude": 32.84833,
        "name": "Мглин"
    },
    {
        "keys": [
            "Мегион"
        ],
        "latitude": 61.033055555556,
        "longitude": 76.109722222222,
        "name": "Мегион"
    },
    {
        "keys": [
            "Медвежьегорск"
        ],
        "latitude": 62.91667,
        "longitude": 34.45,
        "name": "Медвежьегорск"
    },
    {
        "keys": [
            "Медногорск"
        ],
        "latitude": 51.422085,
        "longitude": 57.595296,
        "name": "Медногорск"
    },
    {
        "keys": [
            "Медынь"
        ],
        "latitude": 54.96667,
        "longitude": 35.86667,
        "name": "Медынь"
    },
    {
        "keys": [
            "Межгорье"
        ],
        "latitude": 54.24167,
        "longitude": 57.96778,
        "name": "Межгорье"
    },
    {
        "keys": [
            "Междуреченск"
        ],
        "latitude": 53.68333,
        "longitude": 88.05,
        "name": "Междуреченск"
    },
    {
        "keys": [
            "Мезень"
        ],
        "latitude": 65.85,
        "longitude": 44.23333,
        "name": "Мезень"
    },
    {
        "keys": [
            "Меленки"
        ],
        "latitude": 55.33333,
        "longitude": 41.63333,
        "name": "Меленки"
    },
    {
        "keys": [
            "Мелеуз"
        ],
        "latitude": 52.95,
        "longitude": 55.93333,
        "name": "Мелеуз"
    },
    {
        "keys": [
            "Менделеевск"
        ],
        "latitude": 55.9,
        "longitude": 52.316666666667,
        "name": "Менделеевск"
    },
    {
        "keys": [
            "Мензелинск"
        ],
        "latitude": 55.71667,
        "longitude": 53.08333,
        "name": "Мензелинск"
    },
    {
        "keys": [
            "Мещовск"
        ],
        "latitude": 54.31667,
        "longitude": 35.28333,
        "name": "Мещовск"
    },
    {
        "keys": [
            "Миасс"
        ],
        "latitude": 55.05,
        "longitude": 60.1,
        "name": "Миасс"
    },
    {
        "keys": [
            "Микунь"
        ],
        "latitude": 62.35,
        "longitude": 50.06667,
        "name": "Микунь"
    },
    {
        "keys": [
            "Миллерово"
        ],
        "latitude": 48.91667,
        "longitude": 40.4,
        "name": "Миллерово"
    },
    {
        "keys": [
            "Минеральные Воды"
        ],
        "latitude": 44.20083,
        "longitude": 43.1125,
        "name": "Минеральные Воды"
    },
    {
        "keys": [
            "Минусинск"
        ],
        "latitude": 53.7,
        "longitude": 91.68333,
        "name": "Минусинск"
    },
    {
        "keys": [
            "Миньяр"
        ],
        "latitude": 55.06667,
        "longitude": 57.55,
        "name": "Миньяр"
    },
    {
        "keys": [
            "Мирный"
        ],
        "latitude": 62.76028,
        "longitude": 40.33528,
        "name": "Мирный"
    },
    {
        "keys": [
            "Мирный"
        ],
        "latitude": 62.53333,
        "longitude": 113.95,
        "name": "Мирный"
    },
    {
        "keys": [
            "Михайлов"
        ],
        "latitude": 54.23333,
        "longitude": 39.03333,
        "name": "Михайлов"
    },
    {
        "keys": [
            "Михайловка"
        ],
        "latitude": 50.06667,
        "longitude": 43.23333,
        "name": "Михайловка"
    },
    {
        "keys": [
            "Михайловск"
        ],
        "latitude": 56.43333,
        "longitude": 59.11667,
        "name": "Михайловск"
    },
    {
        "keys": [
            "Михайловск"
        ],
        "latitude": 45.130012,
        "longitude": 42.027487,
        "name": "Михайловск"
    },
    {
        "keys": [
            "Мичуринск"
        ],
        "latitude": 52.89222,
        "longitude": 40.49278,
        "name": "Мичуринск"
    },
    {
        "keys": [
            "Могоча"
        ],
        "latitude": 53.73333,
        "longitude": 119.76667,
        "name": "Могоча"
    },
    {
        "keys": [
            "Можайск"
        ],
        "latitude": 55.5,
        "longitude": 36.03333,
        "name": "Можайск"
    },
    {
        "keys": [
            "Можга"
        ],
        "latitude": 56.45,
        "longitude": 52.21667,
        "name": "Можга"
    },
    {
        "keys": [
            "Моздок"
        ],
        "latitude": 43.736575,
        "longitude": 44.652834,
        "name": "Моздок"
    },
    {
        "keys": [
            "Мончегорск"
        ],
        "latitude": 67.93944,
        "longitude": 32.91556,
        "name": "Мончегорск"
    },
    {
        "keys": [
            "Морозовск"
        ],
        "latitude": 48.35,
        "longitude": 41.833333333333,
        "name": "Морозовск"
    },
    {
        "keys": [
            "Моршанск"
        ],
        "latitude": 53.45,
        "longitude": 41.8,
        "name": "Моршанск"
    },
    {
        "keys": [
            "Мосальск"
        ],
        "latitude": 54.48333,
        "longitude": 34.98333,
        "name": "Мосальск"
    },
    {
        "keys": [
            "Москва"
        ],
        "latitude": 55.755833333333,
        "longitude": 37.617777777778,
        "name": "Москва"
    },
    {
        "keys": [
            "Московский"
        ],
        "latitude": 55.6,
        "longitude": 37.35,
        "name": "Московский"
    },
    {
        "keys": [
            "Муравленко"
        ],
        "latitude": 63.79444,
        "longitude": 74.49722,
        "name": "Муравленко"
    },
    {
        "keys": [
            "Мураши"
        ],
        "latitude": 59.38333,
        "longitude": 48.96667,
        "name": "Мураши"
    },
    {
        "keys": [
            "Мурино"
        ],
        "latitude": 60.051284,
        "longitude": 30.438578,
        "name": "Мурино"
    },
    {
        "keys": [
            "Мурманск"
        ],
        "latitude": 68.96667,
        "longitude": 33.08333,
        "name": "Мурманск"
    },
    {
        "keys": [
            "Муром"
        ],
        "latitude": 55.5725,
        "longitude": 42.05139,
        "name": "Муром"
    },
    {
        "keys": [
            "Мценск"
        ],
        "latitude": 53.27833,
        "longitude": 36.575,
        "name": "Мценск"
    },
    {
        "keys": [
            "Мыски"
        ],
        "latitude": 53.7,
        "longitude": 87.81667,
        "name": "Мыски"
    },
    {
        "keys": [
            "Мытищи"
        ],
        "latitude": 55.91667,
        "longitude": 37.73333,
        "name": "Мытищи"
    },
    {
        "keys": [
            "Мышкин"
        ],
        "latitude": 57.78333,
        "longitude": 38.45,
        "name": "Мышкин"
    },
    {
        "keys": [
            "Набережные Челны"
        ],
        "latitude": 55.7,
        "longitude": 52.33333,
        "name": "Набережные Челны"
    },
    {
        "keys": [
            "Навашино"
        ],
        "latitude": 55.53333,
        "longitude": 42.2,
        "name": "Навашино"
    },
    {
        "keys": [
            "Наволоки"
        ],
        "latitude": 57.46667,
        "longitude": 41.96667,
        "name": "Наволоки"
    },
    {
        "keys": [
            "Надым"
        ],
        "latitude": 65.53333,
        "longitude": 72.51667,
        "name": "Надым"
    },
    {
        "keys": [
            "Назарово"
        ],
        "latitude": 56.00639,
        "longitude": 90.39139,
        "name": "Назарово"
    },
    {
        "keys": [
            "Назрань"
        ],
        "latitude": 43.21667,
        "longitude": 44.76667,
        "name": "Назрань"
    },
    {
        "keys": [
            "Называевск"
        ],
        "latitude": 55.56667,
        "longitude": 71.35,
        "name": "Называевск"
    },
    {
        "keys": [
            "Нальчик"
        ],
        "latitude": 43.485259,
        "longitude": 43.607072,
        "name": "Нальчик"
    },
    {
        "keys": [
            "Нариманов"
        ],
        "latitude": 46.68333,
        "longitude": 47.85,
        "name": "Нариманов"
    },
    {
        "keys": [
            "Наро-Фоминск"
        ],
        "latitude": 55.38333,
        "longitude": 36.73333,
        "name": "Наро-Фоминск"
    },
    {
        "keys": [
            "Нарткала"
        ],
        "latitude": 43.556734,
        "longitude": 43.862222,
        "name": "Нарткала"
    },
    {
        "keys": [
            "Нарьян-Мар"
        ],
        "latitude": 67.63778,
        "longitude": 53.00667,
        "name": "Нарьян-Мар"
    },
    {
        "keys": [
            "Находка"
        ],
        "latitude": 42.81667,
        "longitude": 132.88333,
        "name": "Находка"
    },
    {
        "keys": [
            "Невель"
        ],
        "latitude": 56.01667,
        "longitude": 29.93333,
        "name": "Невель"
    },
    {
        "keys": [
            "Невельск"
        ],
        "latitude": 46.65,
        "longitude": 141.86667,
        "name": "Невельск"
    },
    {
        "keys": [
            "Невинномысск"
        ],
        "latitude": 44.63333,
        "longitude": 41.93333,
        "name": "Невинномысск"
    },
    {
        "keys": [
            "Невьянск"
        ],
        "latitude": 57.48333,
        "longitude": 60.2,
        "name": "Невьянск"
    },
    {
        "keys": [
            "Нелидово"
        ],
        "latitude": 56.21667,
        "longitude": 32.78333,
        "name": "Нелидово"
    },
    {
        "keys": [
            "Неман"
        ],
        "latitude": 55.03333,
        "longitude": 22.03333,
        "name": "Неман"
    },
    {
        "keys": [
            "Нерехта"
        ],
        "latitude": 57.45,
        "longitude": 40.58333,
        "name": "Нерехта"
    },
    {
        "keys": [
            "Нерчинск"
        ],
        "latitude": 51.98333,
        "longitude": 116.58333,
        "name": "Нерчинск"
    },
    {
        "keys": [
            "Нерюнгри"
        ],
        "latitude": 56.65833,
        "longitude": 124.725,
        "name": "Нерюнгри"
    },
    {
        "keys": [
            "Нестеров"
        ],
        "latitude": 54.63333,
        "longitude": 22.56667,
        "name": "Нестеров"
    },
    {
        "keys": [
            "Нефтегорск"
        ],
        "latitude": 52.8,
        "longitude": 51.16667,
        "name": "Нефтегорск"
    },
    {
        "keys": [
            "Нефтекамск"
        ],
        "latitude": 56.08889,
        "longitude": 54.24639,
        "name": "Нефтекамск"
    },
    {
        "keys": [
            "Нефтекумск"
        ],
        "latitude": 44.75056,
        "longitude": 44.97972,
        "name": "Нефтекумск"
    },
    {
        "keys": [
            "Нефтеюганск"
        ],
        "latitude": 61.1,
        "longitude": 72.6,
        "name": "Нефтеюганск"
    },
    {
        "keys": [
            "Нея"
        ],
        "latitude": 58.29444,
        "longitude": 43.87806,
        "name": "Нея"
    },
    {
        "keys": [
            "Нижневартовск"
        ],
        "latitude": 60.93389,
        "longitude": 76.58111,
        "name": "Нижневартовск"
    },
    {
        "keys": [
            "Нижнекамск"
        ],
        "latitude": 55.63333,
        "longitude": 51.81667,
        "name": "Нижнекамск"
    },
    {
        "keys": [
            "Нижнеудинск"
        ],
        "latitude": 54.9,
        "longitude": 99.01667,
        "name": "Нижнеудинск"
    },
    {
        "keys": [
            "Нижние Серги"
        ],
        "latitude": 56.66667,
        "longitude": 59.3,
        "name": "Нижние Серги"
    },