[
    {
        "key": "Абаза",
        "latitude": 52.65,
        "longitude": 90.083333333333,
        "name": "Абаза"
    },
    {
        "key": "Абакан",
        "latitude": 53.71667,
        "longitude": 91.41667,
        "name": "Абакан"
    },
    {
        "key": "Абдулино",
        "latitude": 53.68333,
        "longitude": 53.65,
        "name": "Абдулино"
    },
    {
        "key": "Абинск",
        "latitude": 44.86667,
        "longitude": 38.16667,
        "name": "Абинск"
    },
    {
        "key": "Агидель",
        "latitude": 55.9,
        "longitude": 53.93333,
        "name": "Агидель"
    },
    {
        "key": "Агрыз",
        "latitude": 56.51667,
        "longitude": 52.98333,
        "name": "Агрыз"
    },
    {
        "key": "Адыгейск",
        "latitude": 44.884525,
        "longitude": 39.19202,
        "name": "Адыгейск"
    },
    {
        "key": "Азнакаево",
        "latitude": 54.85,
        "longitude": 53.06667,
        "name": "Азнакаево"
    },
    {
        "key": "Азов",
        "latitude": 47.1,
        "longitude": 39.41667,
        "name": "Азов"
    },
    {
        "key": "Ак-Довурак",
        "latitude": 51.16667,
        "longitude": 90.6,
        "name": "Ак-Довурак"
    },
    {
        "key": "Аксай",
        "latitude": 47.26667,
        "longitude": 39.86667,
        "name": "Аксай"
    },
    {
        "key": "Алагир",
        "latitude": 43.04167,
        "longitude": 44.21056,
        "name": "Алагир"
    },
    {
        "key": "Алапаевск",
        "latitude": 57.85,
        "longitude": 61.7,
        "name": "Алапаевск"
    },
    {
        "key": "Алатырь",
        "latitude": 54.85,
        "longitude": 46.58333,
        "name": "Алатырь"
    },
    {
        "key": "Алдан",
        "latitude": 58.6,
        "longitude": 125.38333,
        "name": "Алдан"
    },
    {
        "key": "Алейск",
        "latitude": 52.5,
        "longitude": 82.78333,
        "name": "Алейск"
    },
    {
        "key": "Александров",
        "latitude": 56.39361,
        "longitude": 38.715,
        "name": "Александров"
    },
    {
        "key": "Александровск-Сахалинский",
        "latitude": 50.9,
        "longitude": 142.15,
        "name": "Александровск-Сахалинский"
    },
    {
        "key": "Александровск",
        "latitude": 59.16667,
        "longitude": 57.58333,
        "name": "Александровск"
    },
    {
        "key": "Алексеевка",
        "latitude": 50.63,
        "longitude": 38.68639,
        "name": "Алексеевка"
    },
    {
        "key": "Алексин",
        "latitude": 54.5,
        "longitude": 37.06667,
        "name": "Алексин"
    },
    {
        "key": "Алзамай",
        "latitude": 55.55,
        "longitude": 98.66667,
        "name": "Алзамай"
    },
    {
        "key": "Алупка",
        "latitude": 44.41972,
        "longitude": 34.04306,
        "name": "Алупка"
    },
    {
        "key": "Алушта",
        "latitude": 44.66722,
        "longitude": 34.39778,
        "name": "Алушта"
    },
    {
        "key": "Альметьевск",
        "latitude": 54.9,
        "longitude": 52.3,
        "name": "Альметьевск"
    },
    {
        "key": "Амурск",
        "latitude": 50.21667,
        "longitude": 136.9,
        "name": "Амурск"
    },
    {
        "key": "Анадырь",
        "latitude": 64.73333,
        "longitude": 177.51667,
        "name": "Анадырь"
    },
    {
        "key": "Анапа",
        "latitude": 44.893857,
        "longitude": 37.317481,
        "name": "Анапа"
    },
    {
        "key": "Ангарск",
        "latitude": 52.56667,
        "longitude": 103.91667,
        "name": "Ангарск"
    },
    {
        "key": "Андреаполь",
        "latitude": 56.65,
        "longitude": 32.26667,
        "name": "Андреаполь"
    },
    {
        "key": "Анжеро-Судженск",
        "latitude": 56.08333,
        "longitude": 86.03333,
        "name": "Анжеро-Судженск"
    },
    {
        "key": "Анива",
        "latitude": 46.71667,
        "longitude": 142.51667,
        "name": "Анива"
    },
    {
        "key": "Апатиты",
        "latitude": 67.5675,
        "longitude": 33.39333,
        "name": "Апатиты"
    },
    {
        "key": "Апрелевка",
        "latitude": 55.53333,
        "longitude": 37.05,
        "name": "Апрелевка"
    },
    {
        "key": "Апшеронск",
        "latitude": 44.46083,
        "longitude": 39.74056,
        "name": "Апшеронск"
    },
    {
        "key": "Арамиль",
        "latitude": 56.7,
        "longitude": 60.83333,
        "name": "Арамиль"
    },
    {
        "key": "Аргун",
        "latitude": 43.292095,
        "longitude": 45.876622,
        "name": "Аргун"
    },
    {
        "key": "Ардатов",
        "latitude": 54.85,
        "longitude": 46.23333,
        "name": "Ардатов"
    },
    {
        "key": "Ардон",
        "latitude": 43.17278,
        "longitude": 44.29222,
        "name": "Ардон"
    },
    {
        "key": "Арзамас",
        "latitude": 55.38333,
        "longitude": 43.8,
        "name": "Арзамас"
    },
    {
        "key": "Аркадак",
        "latitude": 51.93333,
        "longitude": 43.5,
        "name": "Аркадак"
    },
    {
        "key": "Армавир",
        "latitude": 44.99464,
        "longitude": 41.12946,
        "name": "Армавир"
    },
    {
        "key": "Армянск",
        "latitude": 46.10694,
        "longitude": 33.69306,
        "name": "Армянск"
    },
    {
        "key": "Арсеньев",
        "latitude": 44.16667,
        "longitude": 133.26667,
        "name": "Арсеньев"
    },
    {
        "key": "Арск",
        "latitude": 56.09056,
        "longitude": 49.87639,
        "name": "Арск"
    },
    {
        "key": "Артём",
        "latitude": 43.35,
        "longitude": 132.18333,
        "name": "Артём"
    },
    {
        "key": "Артёмовск",
        "latitude": 54.35,
        "longitude": 93.43333,
        "name": "Артёмовск"
    },
    {
        "key": "Артёмовский",
        "latitude": 57.33639,
        "longitude": 61.89194,
        "name": "Артёмовский"
    },
    {
        "key": "Архангельск",
        "latitude": 64.55,
        "longitude": 40.53333,
        "name": "Архангельск"
    },
    {
        "key": "Асбест",
        "latitude": 57.01027679,
        "longitude": 61.45639038,
        "name": "Асбест"
    },
    {
        "key": "Асино",
        "latitude": 57.0,
        "longitude": 86.15,
        "name": "Асино"
    },
    {
        "key": "Астрахань",
        "latitude": 46.33333,
        "longitude": 48.03333,
        "name": "Астрахань"
    },
    {
        "key": "Аткарск",
        "latitude": 51.86667,
        "longitude": 45.0,
        "name": "Аткарск"
    },
    {
        "key": "Ахтубинск",
        "latitude": 48.28333,
        "longitude": 46.16667,
        "name": "Ахтубинск"
    },
    {
        "key": "Ачинск",
        "latitude": 56.26667,
        "longitude": 90.5,
        "name": "Ачинск"
    },
    {
        "key": "Ачхой-Мартан",
        "latitude": 43.189155,
        "longitude": 45.284741,
        "name": "Ачхой-Мартан"
    },
    {
        "key": "Аша",
        "latitude": 55.0,
        "longitude": 57.25,
        "name": "Аша"
    },
    {
        "key": "Бабаево",
        "latitude": 59.38333,
        "longitude": 35.95,
        "name": "Бабаево"
    },
    {
        "key": "Бабушкин",
        "latitude": 51.71667,
        "longitude": 105.86667,
        "name": "Бабушкин"
    },
    {
        "key": "Бавлы",
        "latitude": 54.4,
        "longitude": 53.25,
        "name": "Бавлы"
    },
    {
        "key": "Багратионовск",
        "latitude": 54.38333,
        "longitude": 20.63333,
        "name": "Багратионовск"
    },
    {
        "key": "Байкальск",
        "latitude": 51.51722,
        "longitude": 104.15611,
        "name": "Байкальск"
    },
    {
        "key": "Баймак",
        "latitude": 52.58333,
        "longitude": 58.31667,
        "name": "Баймак"
    },
    {
        "key": "Бакал",
        "latitude": 54.93333,
        "longitude": 58.8,
        "name": "Бакал"
    },
    {
        "key": "Баксан",
        "latitude": 43.683333,
        "longitude": 43.533333,
        "name": "Баксан"
    },
    {
        "key": "Балабаново",
        "latitude": 55.18333,
        "longitude": 36.65,
        "name": "Балабаново"
    },
    {
        "key": "Балаклава",
        "latitude": 44.5,
        "longitude": 33.6,
        "name": "Балаклава"
    },
    {
        "key": "Балаково",
        "latitude": 52.03333,
        "longitude": 47.78333,
        "name": "Балаково"
    },
    {
        "key": "Балахна",
        "latitude": 56.48083,
        "longitude": 43.54028,
        "name": "Балахна"
    },
    {
        "key": "Балашиха",
        "latitude": 55.8,
        "longitude": 37.93333,
        "name": "Балашиха"
    },
    {
        "key": "Балашов",
        "latitude": 51.55,
        "longitude": 43.16667,
        "name": "Балашов"
    },
    {
        "key": "Балей",
        "latitude": 51.57694,
        "longitude": 116.64917,
        "name": "Балей"
    },
    {
        "key": "Балтийск",
        "latitude": 54.65,
        "longitude": 19.91667,
        "name": "Балтийск"
    },
    {
        "key": "Барабинск",
        "latitude": 55.35,
        "longitude": 78.35,
        "name": "Барабинск"
    },
    {
        "key": "Барнаул",
        "latitude": 53.347361,
        "longitude": 83.77833,
        "name": "Барнаул"
    },
    {
        "key": "Барыш",
        "latitude": 53.65,
        "longitude": 47.11667,
        "name": "Барыш"
    },
    {
        "key": "Батайск",
        "latitude": 47.13333,
        "longitude": 39.75,
        "name": "Батайск"
    },
    {
        "key": "Бахчисарай",
        "latitude": 44.75278,
        "longitude": 33.86083,
        "name": "Бахчисарай"
    },
    {
        "key": "Бежецк",
        "latitude": 57.78333,
        "longitude": 36.7,
        "name": "Бежецк"
    },
    {
        "key": "Белая Калитва",
        "latitude": 48.17472,
        "longitude": 40.79306,
        "name": "Белая Калитва"
    },
    {
        "key": "Белая Холуница",
        "latitude": 58.83333,
        "longitude": 50.85,
        "name": "Белая Холуница"
    },
    {
        "key": "Белгород",
        "latitude": 50.6,
        "longitude": 36.6,
        "name": "Белгород"
    },
    {
        "key": "Белебей",
        "latitude": 54.1,
        "longitude": 54.13333,
        "name": "Белебей"
    },
    {
        "key": "Белинский",
        "latitude": 52.96667,
        "longitude": 43.41667,
        "name": "Белинский"
    },
    {
        "key": "Белово",
        "latitude": 54.416666666667,
        "longitude": 86.3,
        "name": "Белово"
    },
    {
        "key": "Белогорск",
        "latitude": 50.91667,
        "longitude": 128.48333,
        "name": "Белогорск"
    },
    {
        "key": "Белогорск",
        "latitude": 45.05444,
        "longitude": 34.60222,
        "name": "Белогорск"
    },
    {
        "key": "Белозерск",
        "latitude": 60.03333,
        "longitude": 37.78333,
        "name": "Белозерск"
    },
    {
        "key": "Белокуриха",
        "latitude": 52.0,
        "longitude": 84.98333,
        "name": "Белокуриха"
    },
    {
        "key": "Беломорск",
        "latitude": 64.51667,
        "longitude": 34.76667,
        "name": "Беломорск"
    },
    {
        "key": "Белоозёрский",
        "latitude": 55.46139,
        "longitude": 38.44222,
        "name": "Белоозёрский"
    },
    {
        "key": "Белорецк",
        "latitude": 53.96667,
        "longitude": 58.4,
        "name": "Белорецк"
    },
    {
        "key": "Белореченск",
        "latitude": 44.76667,
        "longitude": 39.86667,
        "name": "Белореченск"
    },
    {
        "key": "Белоусово",
        "latitude": 55.09167,
        "longitude": 36.66667,
        "name": "Белоусово"
    },
    {
        "key": "Белоярский",
        "latitude": 63.71667,
        "longitude": 66.66667,
        "name": "Белоярский"
    },
    {
        "key": "Белый",
        "latitude": 55.83333,
        "longitude": 32.93333,
        "name": "Белый"
    },
    {
        "key": "Белёв",
        "latitude": 53.8,
        "longitude": 36.13333,
        "name": "Белёв"
    },
    {
        "key": "Бердск",
        "latitude": 54.75,
        "longitude": 83.1,
        "name": "Бердск"
    },
    {
        "key": "Березники",
        "latitude": 59.40806,
        "longitude": 56.80528,
        "name": "Березники"
    },
    {
        "key": "Берёзовский",
        "latitude": 55.66667,
        "longitude": 86.25,
        "name": "Берёзовский"
    },
    {
        "key": "Берёзовский",
        "latitude": 56.9,
        "longitude": 60.8,
        "name": "Берёзовский"
    },
    {
        "key": "Беслан",
        "latitude": 43.18889,
        "longitude": 44.521691,
        "name": "Беслан"
    },
    {
        "key": "Бийск",
        "latitude": 52.51667,
        "longitude": 85.16667,
        "name": "Бийск"
    },
    {
        "key": "Бикин",
        "latitude": 46.81667,
        "longitude": 134.25,
        "name": "Бикин"
    },
    {
        "key": "Билибино",
        "latitude": 68.05,
        "longitude": 166.45,
        "name": "Билибино"
    },
    {
        "key": "Биробиджан",
        "latitude": 48.78333,
        "longitude": 132.93333,
        "name": "Биробиджан"
    },
    {
        "key": "Бирск",
        "latitude": 55.41667,
        "longitude": 55.53333,
        "name": "Бирск"
    },
    {
        "key": "Бирюсинск",
        "latitude": 55.95,
        "longitude": 97.81667,
        "name": "Бирюсинск"
    },
    {
        "key": "Бирюч",
        "latitude": 50.65,
        "longitude": 38.4,
        "name": "Бирюч"
    },
    {
        "key": "Благовещенск",
        "latitude": 50.25778,
        "longitude": 127.53639,
        "name": "Благовещенск"
    },
    {
        "key": "Благовещенск",
        "latitude": 55.03333,
        "longitude": 55.98333,
        "name": "Благовещенск"
    },
    {
        "key": "Благодарный",
        "latitude": 45.1029039,
        "longitude": 43.4251513,
        "name": "Благодарный"
    },
    {
        "key": "Бобров",
        "latitude": 51.09444,
        "longitude": 40.03222,
        "name": "Бобров"
    },
    {
        "key": "Богданович",
        "latitude": 56.78333,
        "longitude": 62.05,
        "name": "Богданович"
    },
    {
        "key": "Богородицк",
        "latitude": 53.76667,
        "longitude": 38.13333,
        "name": "Богородицк"
    },
    {
        "key": "Богородск",
        "latitude": 56.09972,
        "longitude": 43.50722,
        "name": "Богородск"
    },
    {
        "key": "Боготол",
        "latitude": 56.2,
        "longitude": 89.51667,
        "name": "Боготол"
    },
    {
        "key": "Богучар",
        "latitude": 49.93333,
        "longitude": 40.55,
        "name": "Богучар"
    },
    {
        "key": "Бодайбо",
        "latitude": 57.85,
        "longitude": 114.2,
        "name": "Бодайбо"
    },
    {
        "key": "Бокситогорск",
        "latitude": 59.473576,
        "longitude": 33.847675,
        "name": "Бокситогорск"
    },
    {
        "key": "Болгар",
        "latitude": 54.96667,
        "longitude": 49.03333,
        "name": "Болгар"
    },
    {
        "key": "Бологое",
        "latitude": 57.87083,
        "longitude": 34.07361,
        "name": "Бологое"
    },
    {
        "key": "Болотное",
        "latitude": 55.66667,
        "longitude": 84.4,
        "name": "Болотное"
    },
    {
        "key": "Болохово",
        "latitude": 54.08333,
        "longitude": 37.81667,
        "name": "Болохово"
    },
    {
        "key": "Болхов",
        "latitude": 53.45,
        "longitude": 36.0,
        "name": "Болхов"
    },
    {
        "key": "Большой Камень",
        "latitude": 43.11667,
        "longitude": 132.35,
        "name": "Большой Камень"
    },
    {
        "key": "Бор",
        "latitude": 56.36028,
        "longitude": 44.05917,
        "name": "Бор"
    },
    {
        "key": "Борзя",
        "latitude": 50.38333,
        "longitude": 116.53333,
        "name": "Борзя"
    },
    {
        "key": "Борисоглебск",
        "latitude": 51.36667,
        "longitude": 42.08333,
        "name": "Борисоглебск"
    },
    {
        "key": "Боровичи",
        "latitude": 58.38694,
        "longitude": 33.91139,
        "name": "Боровичи"
    },
    {
        "key": "Боровск",
        "latitude": 55.2,
        "longitude": 36.48333,
        "name": "Боровск"
    },
    {
        "key": "Бородино",
        "latitude": 55.9,
        "longitude": 94.9,
        "name": "Бородино"
    },
    {
        "key": "Братск",
        "latitude": 56.152,
        "longitude": 101.633,
        "name": "Братск"
    },
    {
        "key": "Бронницы",
        "latitude": 55.42278,
        "longitude": 38.25889,
        "name": "Бронницы"
    },
    {
        "key": "Брянск",
        "latitude": 53.25,
        "longitude": 34.36667,
        "name": "Брянск"
    },
    {
        "key": "Бугульма",
        "latitude": 54.53333,
        "longitude": 52.78333,
        "name": "Бугульма"
    },
    {
        "key": "Бугуруслан",
        "latitude": 53.61667,
        "longitude": 52.41667,
        "name": "Бугуруслан"
    },
    {
        "key": "Будённовск",
        "latitude": 44.79,
        "longitude": 44.14,
        "name": "Будённовск"
    },
    {
        "key": "Бузулук",
        "latitude": 52.76667,
        "longitude": 52.26667,
        "name": "Бузулук"
    },
    {
        "key": "Буинск",
        "latitude": 54.96667,
        "longitude": 48.28333,
        "name": "Буинск"
    },
    {
        "key": "Буй",
        "latitude": 58.48333,
        "longitude": 41.51667,
        "name": "Буй"
    },
    {
        "key": "Буйнакск",
        "latitude": 42.81667,
        "longitude": 47.11667,
        "name": "Буйнакск"
    },
    {
        "key": "Бутурлиновка",
        "latitude": 50.825,
        "longitude": 40.58889,
        "name": "Бутурлиновка"
    },
    {
        "key": "Валдай",
        "latitude": 57.96667,
        "longitude": 33.25,
        "name": "Валдай"
    },
    {
        "key": "Валуйки",
        "latitude": 50.18333,
        "longitude": 38.11667,
        "name": "Валуйки"
    },
    {
        "key": "Велиж",
        "latitude": 55.6,
        "longitude": 31.2,
        "name": "Велиж"
    },
    {
        "key": "Великие Луки",
        "latitude": 56.35,
        "longitude": 30.51667,
        "name": "Великие Луки"
    },
    {
        "key": "Великий Новгород",
        "latitude": 58.525,
        "longitude": 31.275,
        "name": "Великий Новгород"
    },
    {
        "key": "Великий Устюг",
        "latitude": 60.75889,
        "longitude": 46.30389,
        "name": "Великий Устюг"
    },
    {
        "key": "Вельск",
        "latitude": 61.06667,
        "longitude": 42.1,
        "name": "Вельск"
    },
    {
        "key": "Венёв",
        "latitude": 54.35,
        "longitude": 38.26667,
        "name": "Венёв"
    },
    {
        "key": "Верещагино",
        "latitude": 58.06667,
        "longitude": 54.65,
        "name": "Верещагино"
    },
    {
        "key": "Верея",
        "latitude": 55.33333,
        "longitude": 36.18333,
        "name": "Верея"
    },
    {
        "key": "Верхнеуральск",
        "latitude": 53.88333,
        "longitude": 59.21667,
        "name": "Верхнеуральск"
    },
    {
        "key": "Верхний Тагил",
        "latitude": 57.38333,
        "longitude": 59.93333,
        "name": "Верхний Тагил"
    },
    {
        "key": "Верхний Уфалей",
        "latitude": 56.05,
        "longitude": 60.23333,
        "name": "Верхний Уфалей"
    },
    {
        "key": "Верхняя Пышма",
        "latitude": 56.966666666667,
        "longitude": 60.583333333333,
        "name": "Верхняя Пышма"
    },
    {
        "key": "Верхняя Салда",
        "latitude": 58.05,
        "longitude": 60.55,
        "name": "Верхняя Салда"
    },
    {
        "key": "Верхняя Тура",
        "latitude": 58.3574333,
        "longitude": 59.8224444,
        "name": "Верхняя Тура"
    },
    {
        "key": "Верхотурье",
        "latitude": 58.86667,
        "longitude": 60.8,
        "name": "Верхотурье"
    },
    {
        "key": "Верхоянск",
        "latitude": 67.55,
        "longitude": 133.38333,
        "name": "Верхоянск"
    },
    {
        "key": "Весьегонск",
        "latitude": 58.65,
        "longitude": 37.26667,
        "name": "Весьегонск"
    },
    {
        "key": "Ветлуга",
        "latitude": 57.85556,
        "longitude": 45.78111,
        "name": "Ветлуга"
    },
    {
        "key": "Видное",
        "latitude": 55.55,
        "longitude": 37.7,
        "name": "Видное"
    },
    {
        "key": "Вилюйск",
        "latitude": 63.75,
        "longitude": 121.61667,
        "name": "Вилюйск"
    },
    {
        "key": "Вилючинск",
        "latitude": 52.93333,
        "longitude": 158.4,
        "name": "Вилючинск"
    },
    {
        "key": "Вихоревка",
        "latitude": 56.11667,
        "longitude": 101.16667,
        "name": "Вихоревка"
    },
    {
        "key": "Вичуга",
        "latitude": 57.2,
        "longitude": 41.91667,
        "name": "Вичуга"
    },
    {
        "key": "Владивосток",
        "latitude": 43.116666666667,
        "longitude": 131.9,
        "name": "Владивосток"
    },
    {
        "key": "Владикавказ",
        "latitude": 43.01667,
        "longitude": 44.683315,
        "name": "Владикавказ"
    },
    {
        "key": "Владимир",
        "latitude": 56.13333,
        "longitude": 40.41667,
        "name": "Владимир"
    },
    {
        "key": "Волгоград",
        "latitude": 48.71167,
        "longitude": 44.51389,
        "name": "Волгоград"
    },
    {
        "key": "Волгодонск",
        "latitude": 47.54,
        "longitude": 42.20722,
        "name": "Волгодонск"
    },
    {
        "key": "Волгореченск",
        "latitude": 57.43333,
        "longitude": 41.16667,
        "name": "Волгореченск"
    },
    {
        "key": "Волжск",
        "latitude": 55.86667,
        "longitude": 48.35,
        "name": "Волжск"
    },
    {
        "key": "Волжский",
        "latitude": 48.783333333333,
        "longitude": 44.766666666667,
        "name": "Волжский"
    },
    {
        "key": "Вологда",
        "latitude": 59.216666666667,
        "longitude": 39.9,
        "name": "Вологда"
    },
    {
        "key": "Володарск",
        "latitude": 56.23333,
        "longitude": 43.2,
        "name": "Володарск"
    },
    {
        "key": "Волоколамск",
        "latitude": 56.03333,
        "longitude": 35.95,
        "name": "Волоколамск"
    },
    {
        "key": "Волосово",
        "latitude": 59.447275,
        "longitude": 29.484819,
        "name": "Волосово"
    },
    {
        "key": "Волхов",
        "latitude": 59.900543,
        "longitude": 32.352681,
        "name": "Волхов"
    },
    {
        "key": "Волчанск",
        "latitude": 59.93333,
        "longitude": 60.05,
        "name": "Волчанск"
    },
    {
        "key": "Вольск",
        "latitude": 52.05,
        "longitude": 47.38333,
        "name": "Вольск"
    },
    {
        "key": "Воркута",
        "latitude": 67.5,
        "longitude": 64.03333,
        "name": "Воркута"
    },
    {
        "key": "Воронеж",
        "latitude": 51.67167,
        "longitude": 39.21056,
        "name": "Воронеж"
    },
    {
        "key": "Ворсма",
        "latitude": 55.98333,
        "longitude": 43.26667,
        "name": "Ворсма"
    },
    {
        "key": "Воскресенск",
        "latitude": 55.32333,
        "longitude": 38.68056,
        "name": "Воскресенск"
    },
    {
        "key": "Воткинск",
        "latitude": 57.05,
        "longitude": 54.0,
        "name": "Воткинск"
    },
    {
        "key": "Всеволожск",
        "latitude": 60.021321,
        "longitude": 30.654084,
        "name": "Всеволожск"
    },
    {
        "key": "Вуктыл",
        "latitude": 63.86667,
        "longitude": 57.31667,
        "name": "Вуктыл"
    },
    {
        "key": "Выборг",
        "latitude": 60.710496,
        "longitude": 28.749781,
        "name": "Выборг"
    },
    {
        "key": "Выкса",
        "latitude": 55.31944,
        "longitude": 42.17306,
        "name": "Выкса"
    },
    {
        "key": "Высоковск",
        "latitude": 56.31667,
        "longitude": 36.55,
        "name": "Высоковск"
    },
    {
        "key": "Высоцк",
        "latitude": 60.625604,
        "longitude": 28.568277,
        "name": "Высоцк"
    },
    {
        "key": "Вытегра",
        "latitude": 61.0,
        "longitude": 36.45,
        "name": "Вытегра"
    },
    {
        "key": "Вышний Волочёк",
        "latitude": 57.58333,
        "longitude": 34.56667,
        "name": "Вышний Волочёк"
    },
    {
        "key": "Вяземский",
        "latitude": 47.53333,
        "longitude": 134.75,
        "name": "Вяземский"
    },
    {
        "key": "Вязники",
        "latitude": 56.24333,
        "longitude": 42.12917,
        "name": "Вязники"
    },
    {
        "key": "Вязьма",
        "latitude": 55.21028,
        "longitude": 34.285,
        "name": "Вязьма"
    },
    {
        "key": "Вятские Поляны",
        "latitude": 56.218417,
        "longitude": 51.068583,
        "name": "Вятские Поляны"
    },
    {
        "key": "Гаврилов Посад",
        "latitude": 56.56667,
        "longitude": 40.11667,
        "name": "Гаврилов Посад"
    },
    {
        "key": "Гаврилов-Ям",
        "latitude": 57.3,
        "longitude": 39.85,
        "name": "Гаврилов-Ям"
    },
    {
        "key": "Гагарин",
        "latitude": 55.55,
        "longitude": 35.0,
        "name": "Гагарин"
    },
    {
        "key": "Гаджиево",
        "latitude": 69.25528,
        "longitude": 33.31667,
        "name": "Гаджиево"
    },
    {
        "key": "Гай",
        "latitude": 51.46667,
        "longitude": 58.45,
        "name": "Гай"
    },
    {
        "key": "Галич",
        "latitude": 58.38333,
        "longitude": 42.35,
        "name": "Галич"
    },
    {
        "key": "Гатчина",
        "latitude": 59.56841,
        "longitude": 30.122892,
        "name": "Гатчина"
    },
    {
        "key": "Гвардейск",
        "latitude": 54.65,
        "longitude": 21.06667,
        "name": "Гвардейск"
    },
    {
        "key": "Гдов",
        "latitude": 58.73333,
        "longitude": 27.81667,
        "name": "Гдов"
    },
    {
        "key": "Геленджик",
        "latitude": 44.560999,
        "longitude": 38.076949,
        "name": "Геленджик"
    },
    {
        "key": "Георгиевск",
        "latitude": 44.15,
        "longitude": 43.46667,
        "name": "Георгиевск"
    },
    {
        "key": "Глазов",
        "latitude": 58.14083,
        "longitude": 52.67417,
        "name": "Глазов"
    },
    {
        "key": "Голицыно",
        "latitude": 55.61472,
        "longitude": 36.98722,
        "name": "Голицыно"
    },
    {
        "key": "Горбатов",
        "latitude": 56.13333,
        "longitude": 43.06667,
        "name": "Горбатов"
    },
    {
        "key": "Горно-Алтайск",
        "latitude": 51.96,
        "longitude": 85.96,
        "name": "Горно-Алтайск"
    },
    {
        "key": "Горнозаводск",
        "latitude": 58.38333,
        "longitude": 58.31667,
        "name": "Горнозаводск"
    },
    {
        "key": "Горняк",
        "latitude": 50.993028,
        "longitude": 81.467934,
        "name": "Горняк"
    },
    {
        "key": "Городец",
        "latitude": 56.65028,
        "longitude": 43.47028,
        "name": "Городец"
    },
    {
        "key": "Городище",
        "latitude": 53.26667,
        "longitude": 45.7,
        "name": "Городище"
    },
    {
        "key": "Городовиковск",
        "latitude": 46.08333,
        "longitude": 41.93333,
        "name": "Городовиковск"
    },
    {
        "key": "Гороховец",
        "latitude": 56.20278,
        "longitude": 42.6925,
        "name": "Гороховец"
    },
    {
        "key": "Горячий Ключ",
        "latitude": 44.633284,
        "longitude": 39.133287,
        "name": "Горячий Ключ"
    },
    {
        "key": "Грайворон",
        "latitude": 50.48333,
        "longitude": 35.66667,
        "name": "Грайворон"
    },
    {
        "key": "Гремячинск",
        "latitude": 58.56667,
        "longitude": 57.83333,
        "name": "Гремячинск"
    },
    {
        "key": "Грозный",
        "latitude": 43.31667,
        "longitude": 45.7,
        "name": "Грозный"
    },
    {
        "key": "Грязи",
        "latitude": 52.5,
        "longitude": 39.93333,
        "name": "Грязи"
    },
    {
        "key": "Грязовец",
        "latitude": 58.88333,
        "longitude": 40.25,
        "name": "Грязовец"
    },
    {
        "key": "Губаха",
        "latitude": 58.86667,
        "longitude": 57.58333,
        "name": "Губаха"
    },
    {
        "key": "Губкин",
        "latitude": 51.28333,
        "longitude": 37.55,
        "name": "Губкин"
    },
    {
        "key": "Губкинский",
        "latitude": 64.43333,
        "longitude": 76.5,
        "name": "Губкинский"
    },
    {
        "key": "Гудермес",
        "latitude": 43.34861,
        "longitude": 46.09611,
        "name": "Гудермес"
    },
    {
        "key": "Гуково",
        "latitude": 48.05,
        "longitude": 39.93333,
        "name": "Гуково"
    },
    {
        "key": "Гулькевичи",
        "latitude": 45.36028,
        "longitude": 40.69444,
        "name": "Гулькевичи"
    },
    {
        "key": "Гурьевск",
        "latitude": 54.76667,
        "longitude": 20.6,
        "name": "Гурьевск"
    },
    {
        "key": "Гурьевск",
        "latitude": 54.28333,
        "longitude": 85.93333,
        "name": "Гурьевск"
    },
    {
        "key": "Гусев",
        "latitude": 54.58333,
        "longitude": 22.2,
        "name": "Гусев"
    },
    {
        "key": "Гусиноозёрск",
        "latitude": 51.28556,
        "longitude": 106.52917,
        "name": "Гусиноозёрск"
    },
    {
        "key": "Гусь-Хрустальный",
        "latitude": 55.61667,
        "longitude": 40.65,
        "name": "Гусь-Хрустальный"
    },
    {
        "key": "Давлеканово",
        "latitude": 54.21667,
        "longitude": 55.03333,
        "name": "Давлеканово"
    },
    {
        "key": "Дагестанские Огни",
        "latitude": 42.11667,
        "longitude": 48.2,
        "name": "Дагестанские Огни"
    },
    {
        "key": "Далматово",
        "latitude": 56.26667,
        "longitude": 62.91667,
        "name": "Далматово"
    },
    {
        "key": "Дальнегорск",
        "latitude": 44.56667,
        "longitude": 135.61667,
        "name": "Дальнегорск"
    },
    {
        "key": "Дальнереченск",
        "latitude": 45.93333,
        "longitude": 133.73333,
        "name": "Дальнереченск"
    },
    {
        "key": "Данилов",
        "latitude": 58.18333,
        "longitude": 40.18333,
        "name": "Данилов"
    },
    {
        "key": "Данков",
        "latitude": 53.25,
        "longitude": 39.15,
        "name": "Данков"
    },
    {
        "key": "Дегтярск",
        "latitude": 56.7,
        "longitude": 60.1,
        "name": "Дегтярск"
    },
    {
        "key": "Дедовск",
        "latitude": 55.86667,
        "longitude": 37.13333,
        "name": "Дедовск"
    },
    {
        "key": "Демидов",
        "latitude": 55.26667,
        "longitude": 31.51667,
        "name": "Демидов"
    },
    {
        "key": "Дербент",
        "latitude": 42.069825,
        "longitude": 48.295025,
        "name": "Дербент"
    },
    {
        "key": "Десногорск",
        "latitude": 54.1530861,
        "longitude": 33.2902917,
        "name": "Десногорск"
    },
    {
        "key": "Джанкой",
        "latitude": 45.70861,
        "longitude": 34.39333,
        "name": "Джанкой"
    },
    {
        "key": "Дзержинск",
        "latitude": 56.23333,
        "longitude": 43.45,
        "name": "Дзержинск"
    },
    {
        "key": "Дзержинский",
        "latitude": 55.63333,
        "longitude": 37.85,
        "name": "Дзержинский"
    },
    {
        "key": "Дивногорск",
        "latitude": 55.95,
        "longitude": 92.38333,
        "name": "Дивногорск"
    },
    {
        "key": "Дигора",
        "latitude": 43.15,
        "longitude": 44.15,
        "name": "Дигора"
    },
    {
        "key": "Димитровград",
        "latitude": 54.23333,
        "longitude": 49.58333,
        "name": "Димитровград"
    },
    {
        "key": "Дмитриев",
        "latitude": 52.12889,
        "longitude": 35.07556,
        "name": "Дмитриев"
    },
    {
        "key": "Дмитров",
        "latitude": 56.34667,
        "longitude": 37.52167,
        "name": "Дмитров"
    },
    {
        "key": "Дмитровск",
        "latitude": 52.505504,
        "longitude": 35.141478,
        "name": "Дмитровск"
    },
    {
        "key": "Дно",
        "latitude": 57.83333,
        "longitude": 29.96667,
        "name": "Дно"
    },
    {
        "key": "Добрянка",
        "latitude": 58.45,
        "longitude": 56.41667,
        "name": "Добрянка"
    },
    {
        "key": "Долгопрудный",
        "latitude": 55.93333,
        "longitude": 37.5,
        "name": "Долгопрудный"
    },
    {
        "key": "Долинск",
        "latitude": 47.31667,
        "longitude": 142.8,
        "name": "Долинск"
    },
    {
        "key": "Домодедово",
        "latitude": 55.44389,
        "longitude": 37.75806,
        "name": "Домодедово"
    },
    {
        "key": "Донецк",
        "latitude": 48.33694,
        "longitude": 39.945,
        "name": "Донецк"
    },
    {
        "key": "Донской",
        "latitude": 53.96667,
        "longitude": 38.31667,
        "name": "Донской"
    },
    {
        "key": "Дорогобуж",
        "latitude": 54.92,
        "longitude": 33.307777777778,
        "name": "Дорогобуж"
    },
    {
        "key": "Дрезна",
        "latitude": 55.74444,
        "longitude": 38.84944,
        "name": "Дрезна"
    },
    {
        "key": "Дубна",
        "latitude": 56.75,
        "longitude": 37.15,
        "name": "Дубна"
    },
    {
        "key": "Дубовка",
        "latitude": 49.05,
        "longitude": 44.83333,
        "name": "Дубовка"
    },
    {
        "key": "Дудинка",
        "latitude": 69.4,
        "longitude": 86.18333,
        "name": "Дудинка"
    },
    {
        "key": "Духовщина",
        "latitude": 55.2,
        "longitude": 32.41667,
        "name": "Духовщина"
    },
    {
        "key": "Дюртюли",
        "latitude": 55.48333,
        "longitude": 54.86667,
        "name": "Дюртюли"
    },
    {
        "key": "Дятьково",
        "latitude": 53.6,
        "longitude": 34.33333,
        "name": "Дятьково"
    },
    {
        "key": "Евпатория",
        "latitude": 45.2,
        "longitude": 33.35833,
        "name": "Евпатория"
    },
    {
        "key": "Егорьевск",
        "latitude": 55.38333,
        "longitude": 39.03361,
        "name": "Егорьевск"
    },
    {
        "key": "Ейск",
        "latitude": 46.71056,
        "longitude": 38.27778,
        "name": "Ейск"
    },
    {
        "key": "Екатеринбург",
        "latitude": 56.83333,
        "longitude": 60.58333,
        "name": "Екатеринбург"
    },
    {
        "key": "Елабуга",
        "latitude": 55.76667,
        "longitude": 52.03333,
        "name": "Елабуга"
    },
    {
        "key": "Елец",
        "latitude": 52.61667,
        "longitude": 38.46667,
        "name": "Елец"
    },
    {
        "key": "Елизово",
        "latitude": 53.18333,
        "longitude": 158.38333,
        "name": "Елизово"
    },
    {
        "key": "Ельня",
        "latitude": 54.56667,
        "longitude": 33.16667,
        "name": "Ельня"
    },
    {
        "key": "Еманжелинск",
        "latitude": 54.75,
        "longitude": 61.31667,
        "name": "Еманжелинск"
    },
    {
        "key": "Емва",
        "latitude": 62.58333,
        "longitude": 50.85,
        "name": "Емва"
    },
    {
        "key": "Енисейск",
        "latitude": 58.46667,
        "longitude": 92.13333,
        "name": "Енисейск"
    },
    {
        "key": "Ермолино",
        "latitude": 55.20556,
        "longitude": 36.57,
        "name": "Ермолино"
    },
    {
        "key": "Ершов",
        "latitude": 51.35,
        "longitude": 48.28333,
        "name": "Ершов"
    },
    {
        "key": "Ессентуки",
        "latitude": 44.04306,
        "longitude": 42.86417,
        "name": "Ессентуки"
    },
    {
        "key": "Ефремов",
        "latitude": 53.149167,
        "longitude": 38.082585,
        "name": "Ефремов"
    },
    {
        "key": "Железноводск",
        "latitude": 44.13333,
        "longitude": 43.03333,
        "name": "Железноводск"
    },
    {
        "key": "Железногорск-Илимский",
        "latitude": 56.58333,
        "longitude": 104.11667,
        "name": "Железногорск-Илимский"
    },
    {
        "key": "Железногорск",
        "latitude": 56.25,
        "longitude": 93.53333,
        "name": "Железногорск"
    },
    {
        "key": "Железногорск",
        "latitude": 52.339174,
        "longitude": 35.351582,
        "name": "Железногорск"
    },
    {
        "key": "Жердевка",
        "latitude": 51.83333,
        "longitude": 41.46667,
        "name": "Жердевка"
    },
    {
        "key": "Жигулёвск",
        "latitude": 53.4,
        "longitude": 49.5,
        "name": "Жигулёвск"
    },
    {
        "key": "Жиздра",
        "latitude": 53.75028,
        "longitude": 34.73611,
        "name": "Жиздра"
    },
    {
        "key": "Жирновск",
        "latitude": 50.98028,
        "longitude": 44.78083,
        "name": "Жирновск"
    },
    {
        "key": "Жуков",
        "latitude": 55.03333,
        "longitude": 36.75,
        "name": "Жуков"
    },
    {
        "key": "Жуковка",
        "latitude": 53.53333,
        "longitude": 33.73333,
        "name": "Жуковка"
    },
    {
        "key": "Жуковский",
        "latitude": 55.60111,
        "longitude": 38.11611,
        "name": "Жуковский"
    },
    {
        "key": "Завитинск",
        "latitude": 50.11667,
        "longitude": 129.43333,
        "name": "Завитинск"
    },
    {
        "key": "Заводоуковск",
        "latitude": 56.5,
        "longitude": 66.55,
        "name": "Заводоуковск"
    },
    {
        "key": "Заволжск",
        "latitude": 57.48333,
        "longitude": 42.13333,
        "name": "Заволжск"
    },
    {
        "key": "Заволжье",
        "latitude": 56.6425,
        "longitude": 43.39278,
        "name": "Заволжье"
    },
    {
        "key": "Задонск",
        "latitude": 52.38333,
        "longitude": 38.91667,
        "name": "Задонск"
    },
    {
        "key": "Заинск",
        "latitude": 55.3,
        "longitude": 52.01667,
        "name": "Заинск"
    },
    {
        "key": "Закаменск",
        "latitude": 50.38333,
        "longitude": 103.28333,
        "name": "Закаменск"
    },
    {
        "key": "Заозёрный",
        "latitude": 55.96667,
        "longitude": 94.7,
        "name": "Заозёрный"
    },
    {
        "key": "Заозёрск",
        "latitude": 69.4,
        "longitude": 32.45,
        "name": "Заозёрск"
    },
    {
        "key": "Западная Двина",
        "latitude": 56.26667,
        "longitude": 32.08333,
        "name": "Западная Двина"
    },
    {
        "key": "Заполярный",
        "latitude": 69.41667,
        "longitude": 30.8,
        "name": "Заполярный"
    },
    {
        "key": "Зарайск",
        "latitude": 54.76528,
        "longitude": 38.88361,
        "name": "Зарайск"
    },
    {
        "key": "Заречный",
        "latitude": 53.2,
        "longitude": 45.16667,
        "name": "Заречный"
    },
    {
        "key": "Заречный",
        "latitude": 56.81667,
        "longitude": 61.31667,
        "name": "Заречный"
    },
    {
        "key": "Заринск",
        "latitude": 53.7,
        "longitude": 84.91667,
        "name": "Заринск"
    },
    {
        "key": "Звенигово",
        "latitude": 55.96667,
        "longitude": 48.01667,
        "name": "Звенигово"
    },
    {
        "key": "Звенигород",
        "latitude": 55.73333,
        "longitude": 36.85,
        "name": "Звенигород"
    },
    {
        "key": "Зверево",
        "latitude": 48.01667,
        "longitude": 40.11667,
        "name": "Зверево"
    },
    {
        "key": "Зеленогорск",
        "latitude": 56.1,
        "longitude": 94.58333,
        "name": "Зеленогорск"
    },
    {
        "key": "Зеленогорск",
        "latitude": 60.2,
        "longitude": 29.7,
        "name": "Зеленогорск"
    },
    {
        "key": "Зеленоград",
        "latitude": 55.997917,
        "longitude": 37.190417,
        "name": "Зеленоград"
    },
    {
        "key": "Зеленоградск",
        "latitude": 54.95,
        "longitude": 20.48333,
        "name": "Зеленоградск"
    },
    {
        "key": "Зеленодольск",
        "latitude": 55.85,
        "longitude": 48.51667,
        "name": "Зеленодольск"
    },
    {
        "key": "Зеленокумск",
        "latitude": 44.4070115,
        "longitude": 43.8731235,
        "name": "Зеленокумск"
    },
    {
        "key": "Зерноград",
        "latitude": 46.846525,
        "longitude": 40.3040333,
        "name": "Зерноград"
    },
    {
        "key": "Зея",
        "latitude": 53.73333,
        "longitude": 127.25,
        "name": "Зея"
    },
    {
        "key": "Зима",
        "latitude": 53.91667,
        "longitude": 102.05,
        "name": "Зима"
    },
    {
        "key": "Златоуст",
        "latitude": 55.16667,
        "longitude": 59.66667,
        "name": "Златоуст"
    },
    {
        "key": "Злынка",
        "latitude": 52.43333,
        "longitude": 31.73333,
        "name": "Злынка"
    },
    {
        "key": "Змеиногорск",
        "latitude": 51.16667,
        "longitude": 82.16667,
        "name": "Змеиногорск"
    },
    {
        "key": "Знаменск",
        "latitude": 48.58333,
        "longitude": 45.75,
        "name": "Знаменск"
    },
    {
        "key": "Зубцов",
        "latitude": 56.16667,
        "longitude": 34.58333,
        "name": "Зубцов"
    },
    {
        "key": "Зуевка",
        "latitude": 58.403333,
        "longitude": 51.130361,
        "name": "Зуевка"
    },
    {
        "key": "Ивангород",
        "latitude": 59.37649,
        "longitude": 28.219712,
        "name": "Ивангород"
    },
    {
        "key": "Иваново",
        "latitude": 56.99667,
        "longitude": 40.98194,
        "name": "Иваново"
    },
    {
        "key": "Ивантеевка",
        "latitude": 55.97,
        "longitude": 37.92,
        "name": "Ивантеевка"
    },
    {
        "key": "Ивдель",
        "latitude": 60.68333,
        "longitude": 60.43333,
        "name": "Ивдель"
    },
    {
        "key": "Игарка",
        "latitude": 67.46667,
        "longitude": 86.56667,
        "name": "Игарка"
    },
    {
        "key": "Ижевск",
        "latitude": 56.85306,
        "longitude": 53.21222,
        "name": "Ижевск"
    },
    {
        "key": "Избербаш",
        "latitude": 42.56667,
        "longitude": 47.86667,
        "name": "Избербаш"
    },
    {
        "key": "Изобильный",
        "latitude": 45.36667,
        "longitude": 41.71667,
        "name": "Изобильный"
    },
    {
        "key": "Иланский",
        "latitude": 56.23333,
        "longitude": 96.06667,
        "name": "Иланский"
    },
    {
        "key": "Инза",
        "latitude": 53.85,
        "longitude": 46.35,
        "name": "Инза"
    },
    {
        "key": "Инкерман",
        "latitude": 44.61417,
        "longitude": 33.60833,
        "name": "Инкерман"
    },
    {
        "key": "Иннополис",
        "latitude": 55.763633,
        "longitude": 48.736553,
        "name": "Иннополис"
    },
    {
        "key": "Инсар",
        "latitude": 53.86667,
        "longitude": 44.36667,
        "name": "Инсар"
    },
    {
        "key": "Инта",
        "latitude": 66.0398139,
        "longitude": 60.1315194,
        "name": "Инта"
    },
    {
        "key": "Ипатово",
        "latitude": 45.71667,
        "longitude": 42.9,
        "name": "Ипатово"
    },
    {
        "key": "Ирбит",
        "latitude": 57.66667,
        "longitude": 63.06667,
        "name": "Ирбит"
    },
    {
        "key": "Иркутск",
        "latitude": 52.28333,
        "longitude": 104.3,
        "name": "Иркутск"
    },
    {
        "key": "Исилькуль",
        "latitude": 54.90889,
        "longitude": 71.26056,
        "name": "Исилькуль"
    },
    {
        "key": "Искитим",
        "latitude": 54.63333,
        "longitude": 83.3,
        "name": "Искитим"
    },
    {
        "key": "Истра",
        "latitude": 55.91667,
        "longitude": 36.86667,
        "name": "Истра"
    },
    {
        "key": "Ишим",
        "latitude": 56.11667,
        "longitude": 69.5,
        "name": "Ишим"
    },
    {
        "key": "Ишимбай",
        "latitude": 53.45444,
        "longitude": 56.04389,
        "name": "Ишимбай"
    },
    {
        "key": "Йошкар-Ола",
        "latitude": 56.632777777778,
        "longitude": 47.895833333333,
        "name": "Йошкар-Ола"
    },
    {
        "key": "Кадников",
        "latitude": 59.5,
        "longitude": 40.33333,
        "name": "Кадников"
    },
    {
        "key": "Казань",
        "latitude": 55.79083,
        "longitude": 49.11444,
        "name": "Казань"
    },
    {
        "key": "Калач-на-Дону",
        "latitude": 48.68333,
        "longitude": 43.53333,
        "name": "Калач-на-Дону"
    },
    {
        "key": "Калач",
        "latitude": 50.42583,
        "longitude": 41.01556,
        "name": "Калач"
    },
    {
        "key": "Калачинск",
        "latitude": 55.05,
        "longitude": 74.58333,
        "name": "Калачинск"
    },
    {
        "key": "Калининград",
        "latitude": 54.71667,
        "longitude": 20.5,
        "name": "Калининград"
    },
    {
        "key": "Калининск",
        "latitude": 51.5,
        "longitude": 44.45,
        "name": "Калининск"
    },
    {
        "key": "Калтан",
        "latitude": 53.51667,
        "longitude": 87.26667,
        "name": "Калтан"
    },
    {
        "key": "Калуга",
        "latitude": 54.53333,
        "longitude": 36.26667,
        "name": "Калуга"
    },
    {
        "key": "Калязин",
        "latitude": 57.23333,
        "longitude": 37.85,
        "name": "Калязин"
    },
    {
        "key": "Камбарка",
        "latitude": 56.26667,
        "longitude": 54.2,
        "name": "Камбарка"
    },
    {
        "key": "Каменка",
        "latitude": 53.18333,
        "longitude": 44.05,
        "name": "Каменка"
    },
    {
        "key": "Каменногорск",
        "latitude": 60.95081,
        "longitude": 29.130882,
        "name": "Каменногорск"
    },
    {
        "key": "Каменск-Уральский",
        "latitude": 56.4,
        "longitude": 61.93333,
        "name": "Каменск-Уральский"
    },
    {
        "key": "Каменск-Шахтинский",
        "latitude": 48.31667,
        "longitude": 40.26667,
        "name": "Каменск-Шахтинский"
    },
    {
        "key": "Камень-на-Оби",
        "latitude": 53.79194,
        "longitude": 81.34861,
        "name": "Камень-на-Оби"
    },
    {
        "key": "Камешково",
        "latitude": 56.34917,
        "longitude": 40.99778,
        "name": "Камешково"
    },
    {
        "key": "Камызяк",
        "latitude": 46.11556,
        "longitude": 48.07694,
        "name": "Камызяк"
    },
    {
        "key": "Камышин",
        "latitude": 50.08333,
        "longitude": 45.4,
        "name": "Камышин"
    },
    {
        "key": "Камышлов",
        "latitude": 56.85,
        "longitude": 62.71667,
        "name": "Камышлов"
    },
    {
        "key": "Канаш",
        "latitude": 55.50694,
        "longitude": 47.49139,
        "name": "Канаш"
    },
    {
        "key": "Кандалакша",
        "latitude": 67.15694,
        "longitude": 32.41167,
        "name": "Кандалакша"
    },
    {
        "key": "Канск",
        "latitude": 56.2,
        "longitude": 95.7,
        "name": "Канск"
    },
    {
        "key": "Карабаново",
        "latitude": 56.30889,
        "longitude": 38.70139,
        "name": "Карабаново"
    },
    {
        "key": "Карабаш",
        "latitude": 55.48333,
        "longitude": 60.2,
        "name": "Карабаш"
    },
    {
        "key": "Карабулак",
        "latitude": 43.306285,
        "longitude": 44.909763,
        "name": "Карабулак"
    },
    {
        "key": "Карасук",
        "latitude": 53.73333,
        "longitude": 78.03333,
        "name": "Карасук"
    },
    {
        "key": "Карачаевск",
        "latitude": 43.769713,
        "longitude": 41.911369,
        "name": "Карачаевск"
    },
    {
        "key": "Карачев",
        "latitude": 53.11667,
        "longitude": 34.98333,
        "name": "Карачев"
    },
    {
        "key": "Каргат",
        "latitude": 55.2,
        "longitude": 80.28333,
        "name": "Каргат"
    },
    {
        "key": "Каргополь",
        "latitude": 61.5,
        "longitude": 38.93333,
        "name": "Каргополь"
    },
    {
        "key": "Карпинск",
        "latitude": 59.76667,
        "longitude": 60.0,
        "name": "Карпинск"
    },
    {
        "key": "Карталы",
        "latitude": 53.05,
        "longitude": 60.65,
        "name": "Карталы"
    },
    {
        "key": "Касимов",
        "latitude": 54.95,
        "longitude": 41.39722,
        "name": "Касимов"
    },
    {
        "key": "Касли",
        "latitude": 55.88333,
        "longitude": 60.75,
        "name": "Касли"
    },
    {
        "key": "Каспийск",
        "latitude": 42.88333,
        "longitude": 47.63333,
        "name": "Каспийск"
    },
    {
        "key": "Катав-Ивановск",
        "latitude": 54.75,
        "longitude": 58.2,
        "name": "Катав-Ивановск"
    },
    {
        "key": "Катайск",
        "latitude": 56.3,
        "longitude": 62.56667,
        "name": "Катайск"
    },
    {
        "key": "Качканар",
        "latitude": 58.7,
        "longitude": 59.48333,
        "name": "Качканар"
    },
    {
        "key": "Кашин",
        "latitude": 57.35,
        "longitude": 37.61667,
        "name": "Кашин"
    },
    {
        "key": "Кашира",
        "latitude": 54.83333,
        "longitude": 38.15,
        "name": "Кашира"
    },
    {
        "key": "Кедровый",
        "latitude": 57.56667,
        "longitude": 79.56667,
        "name": "Кедровый"
    },
    {
        "key": "Кемерово",
        "latitude": 55.35417,
        "longitude": 86.08972,
        "name": "Кемерово"
    },
    {
        "key": "Кемь",
        "latitude": 64.95,
        "longitude": 34.6,
        "name": "Кемь"
    },
    {
        "key": "Керчь",
        "latitude": 45.33861,
        "longitude": 36.46806,
        "name": "Керчь"
    },
    {
        "key": "Кизел",
        "latitude": 59.05,
        "longitude": 57.65,
        "name": "Кизел"
    },
    {
        "key": "Кизилюрт",
        "latitude": 43.2,
        "longitude": 46.86667,
        "name": "Кизилюрт"
    },
    {
        "key": "Кизляр",
        "latitude": 43.850245,
        "longitude": 46.71698,
        "name": "Кизляр"
    },
    {
        "key": "Кимовск",
        "latitude": 53.96667,
        "longitude": 38.53333,
        "name": "Кимовск"
    },
    {
        "key": "Кимры",
        "latitude": 56.86667,
        "longitude": 37.35,
        "name": "Кимры"
    },
    {
        "key": "Кингисепп",
        "latitude": 59.378053,
        "longitude": 28.601209,
        "name": "Кингисепп"
    },
    {
        "key": "Кинель",
        "latitude": 53.23333,
        "longitude": 50.61667,
        "name": "Кинель"
    },
    {
        "key": "Кинешма",
        "latitude": 57.45,
        "longitude": 42.15,
        "name": "Кинешма"
    },
    {
        "key": "Киреевск",
        "latitude": 53.93333,
        "longitude": 37.93333,
        "name": "Киреевск"
    },
    {
        "key": "Киренск",
        "latitude": 57.78333,
        "longitude": 108.1,
        "name": "Киренск"
    },
    {
        "key": "Киржач",
        "latitude": 56.15,
        "longitude": 38.86667,
        "name": "Киржач"
    },
    {
        "key": "Кириллов",
        "latitude": 59.86667,
        "longitude": 38.38333,
        "name": "Кириллов"
    },
    {
        "key": "Кириши",
        "latitude": 59.449695,
        "longitude": 32.008716,
        "name": "Кириши"
    },
    {
        "key": "Киров",
        "latitude": 54.08333,
        "longitude": 34.3,
        "name": "Киров"
    },
    {
        "key": "Киров",
        "latitude": 58.6,
        "longitude": 49.65,
        "name": "Киров"
    },
    {
        "key": "Кировград",
        "latitude": 57.43333,
        "longitude": 60.06667,
        "name": "Кировград"
    },
    {
        "key": "Кирово-Чепецк",
        "latitude": 58.55,
        "longitude": 50.01667,
        "name": "Кирово-Чепецк"
    },
    {
        "key": "Кировск",
        "latitude": 59.87533,
        "longitude": 30.981457,
        "name": "Кировск"
    },
    {
        "key": "Кировск",
        "latitude": 67.61417,
        "longitude": 33.67167,
        "name": "Кировск"
    },
    {
        "key": "Кирс",
        "latitude": 59.337167,
        "longitude": 52.245472,
        "name": "Кирс"
    },
    {
        "key": "Кирсанов",
        "latitude": 52.65,
        "longitude": 42.73333,
        "name": "Кирсанов"
    },
    {
        "key": "Киселёвск",
        "latitude": 53.98333,
        "longitude": 86.7,
        "name": "Киселёвск"
    },
    {
        "key": "Кисловодск",
        "latitude": 43.90333,
        "longitude": 42.72444,
        "name": "Кисловодск"
    },
    {
        "key": "Клин",
        "latitude": 56.33389,
        "longitude": 36.7125,
        "name": "Клин"
    },
    {
        "key": "Клинцы",
        "latitude": 52.75278,
        "longitude": 32.23611,
        "name": "Клинцы"
    },
    {
        "key": "Княгинино",
        "latitude": 55.81667,
        "longitude": 45.03333,
        "name": "Княгинино"
    },
    {
        "key": "Ковдор",
        "latitude": 67.55944,
        "longitude": 30.46667,
        "name": "Ковдор"
    },
    {
        "key": "Ковров",
        "latitude": 56.36056,
        "longitude": 41.31972,
        "name": "Ковров"
    },
    {
        "key": "Ковылкино",
        "latitude": 54.03333,
        "longitude": 43.91667,
        "name": "Ковылкино"
    },
    {
        "key": "Когалым",
        "latitude": 62.26667,
        "longitude": 74.48333,
        "name": "Когалым"
    },
    {
        "key": "Кодинск",
        "latitude": 58.6,
        "longitude": 99.18333,
        "name": "Кодинск"
    },
    {
        "key": "Козельск",
        "latitude": 54.03333,
        "longitude": 35.78333,
        "name": "Козельск"
    },
    {
        "key": "Козловка",
        "latitude": 55.83333,
        "longitude": 48.25,
        "name": "Козловка"
    },
    {
        "key": "Козьмодемьянск",
        "latitude": 56.33333,
        "longitude": 46.56667,
        "name": "Козьмодемьянск"
    },
    {
        "key": "Кола",
        "latitude": 68.88306,
        "longitude": 33.02194,
        "name": "Кола"
    },
    {
        "key": "Кологрив",
        "latitude": 58.8252278,
        "longitude": 44.311444,
        "name": "Кологрив"
    },
    {
        "key": "Коломна",
        "latitude": 55.09389,
        "longitude": 38.76806,
        "name": "Коломна"
    },
    {
        "key": "Колпашево",
        "latitude": 58.31667,
        "longitude": 82.91667,
        "name": "Колпашево"
    },
    {
        "key": "Колпино",
        "latitude": 59.75,
        "longitude": 30.6,
        "name": "Колпино"
    },
    {
        "key": "Колтуши",
        "latitude": 59.932919,
        "longitude": 30.655377,
        "name": "Колтуши"
    },
    {
        "key": "Кольчугино",
        "latitude": 56.3,
        "longitude": 39.38333,
        "name": "Кольчугино"
    },
    {
        "key": "Коммунар",
        "latitude": 59.621609,
        "longitude": 30.393483,
        "name": "Коммунар"
    },
    {
        "key": "Комсомольск-на-Амуре",
        "latitude": 50.55,
        "longitude": 137.0,
        "name": "Комсомольск-на-Амуре"
    },
    {
        "key": "Комсомольск",
        "latitude": 57.03333,
        "longitude": 40.38333,
        "name": "Комсомольск"
    },
    {
        "key": "Конаково",
        "latitude": 56.7,
        "longitude": 36.76667,
        "name": "Конаково"
    },
    {
        "key": "Кондопога",
        "latitude": 62.2,
        "longitude": 34.26667,
        "name": "Кондопога"
    },
    {
        "key": "Кондрово",
        "latitude": 54.8,
        "longitude": 35.93333,
        "name": "Кондрово"
    },
    {
        "key": "Константиновск",
        "latitude": 47.58333,
        "longitude": 41.1,
        "name": "Константиновск"
    },
    {
        "key": "Копейск",
        "latitude": 55.1,
        "longitude": 61.61667,
        "name": "Копейск"
    },
    {
        "key": "Кораблино",
        "latitude": 53.91667,
        "longitude": 40.01667,
        "name": "Кораблино"
    },
    {
        "key": "Кореновск",
        "latitude": 45.46667,
        "longitude": 39.45,
        "name": "Кореновск"
    },
    {
        "key": "Коркино",
        "latitude": 54.88333,
        "longitude": 61.4,
        "name": "Коркино"
    },
    {
        "key": "Королёв",
        "latitude": 55.91667,
        "longitude": 37.81667,
        "name": "Королёв"
    },
    {
        "key": "Короча",
        "latitude": 50.81361,
        "longitude": 37.18139,
        "name": "Короча"
    },
    {
        "key": "Корсаков",
        "latitude": 46.63333,
        "longitude": 142.76667,
        "name": "Корсаков"
    },
    {
        "key": "Коряжма",
        "latitude": 61.3,
        "longitude": 47.16667,
        "name": "Коряжма"
    },
    {
        "key": "Костерёво",
        "latitude": 55.93333,
        "longitude": 39.63333,
        "name": "Костерёво"
    },
    {
        "key": "Костомукша",
        "latitude": 64.58333,
        "longitude": 30.6,
        "name": "Костомукша"
    },
    {
        "key": "Кострома",
        "latitude": 57.76667,
        "longitude": 40.93333,
        "name": "Кострома"
    },
    {
        "key": "Котельники",
        "latitude": 55.6625,
        "longitude": 37.86722,
        "name": "Котельники"
    },
    {
        "key": "Котельниково",
        "latitude": 47.63333,
        "longitude": 43.13333,
        "name": "Котельниково"
    },
    {
        "key": "Котельнич",
        "latitude": 58.3,
        "longitude": 48.33333,
        "name": "Котельнич"
    },
    {
        "key": "Котлас",
        "latitude": 61.25,
        "longitude": 46.65,
        "name": "Котлас"
    },
    {
        "key": "Котово",
        "latitude": 50.31667,
        "longitude": 44.8,
        "name": "Котово"
    },
    {
        "key": "Котовск",
        "latitude": 52.58333,
        "longitude": 41.5,
        "name": "Котовск"
    },
    {
        "key": "Кохма",
        "latitude": 56.93333,
        "longitude": 41.08333,
        "name": "Кохма"
    },
    {
        "key": "Красавино",
        "latitude": 60.96667,
        "longitude": 46.48333,
        "name": "Красавино"
    },
    {
        "key": "Красноармейск",
        "latitude": 56.12278,
        "longitude": 38.14611,
        "name": "Красноармейск"
    },
    {
        "key": "Красноармейск",
        "latitude": 51.01667,
        "longitude": 45.7,
        "name": "Красноармейск"
    },
    {
        "key": "Красновишерск",
        "latitude": 60.4,
        "longitude": 57.06667,
        "name": "Красновишерск"
    },
    {
        "key": "Красногорск",
        "latitude": 55.81667,
        "longitude": 37.33333,
        "name": "Красногорск"
    },
    {
        "key": "Краснодар",
        "latitude": 45.03333,
        "longitude": 38.98333,
        "name": "Краснодар"
    },
    {
        "key": "Красное Село",
        "latitude": 59.733745,
        "longitude": 30.086205,
        "name": "Красное Село"
    },
    {
        "key": "Краснозаводск",
        "latitude": 56.43806,
        "longitude": 38.22944,
        "name": "Краснозаводск"
    },
    {
        "key": "Краснознаменск",
        "latitude": 54.95,
        "longitude": 22.5,
        "name": "Краснознаменск"
    },
    {
        "key": "Краснознаменск",
        "latitude": 55.6,
        "longitude": 37.03333,
        "name": "Краснознаменск"
    },
    {
        "key": "Краснокаменск",
        "latitude": 50.1,
        "longitude": 118.03333,
        "name": "Краснокаменск"
    },
    {
        "key": "Краснокамск",
        "latitude": 58.08333,
        "longitude": 55.75,
        "name": "Краснокамск"
    },
    {
        "key": "Красноперекопск",
        "latitude": 45.955306,
        "longitude": 33.795,
        "name": "Красноперекопск"
    },
    {
        "key": "Краснослободск",
        "latitude": 48.7,
        "longitude": 44.566666666667,
        "name": "Краснослободск"
    },
    {
        "key": "Краснослободск",
        "latitude": 54.43333,
        "longitude": 43.78333,
        "name": "Краснослободск"
    },
    {
        "key": "Краснотурьинск",
        "latitude": 59.76667,
        "longitude": 60.2,
        "name": "Краснотурьинск"
    },
    {
        "key": "Красноуральск",
        "latitude": 58.35,
        "longitude": 60.05,
        "name": "Красноуральск"
    },
    {
        "key": "Красноуфимск",
        "latitude": 56.61667,
        "longitude": 57.76667,
        "name": "Красноуфимск"
    },
    {
        "key": "Красноярск",
        "latitude": 56.012083,
        "longitude": 92.871295,
        "name": "Красноярск"
    },
    {
        "key": "Красный Кут",
        "latitude": 50.95,
        "longitude": 46.96667,
        "name": "Красный Кут"
    },
    {
        "key": "Красный Сулин",
        "latitude": 47.88333,
        "longitude": 40.06667,
        "name": "Красный Сулин"
    },
    {
        "key": "Красный Холм",
        "latitude": 58.06329,
        "longitude": 37.122983,
        "name": "Красный Холм"
    },
    {
        "key": "Кремёнки",
        "latitude": 54.88917,
        "longitude": 37.12333,
        "name": "Кремёнки"
    },
    {
        "key": "Кронштадт",
        "latitude": 60.0,
        "longitude": 29.76667,
        "name": "Кронштадт"
    },
    {
        "key": "Кропоткин",
        "latitude": 45.43333,
        "longitude": 40.56667,
        "name": "Кропоткин"
    },
    {
        "key": "Крымск",
        "latitude": 44.93333,
        "longitude": 38.0,
        "name": "Крымск"
    },
    {
        "key": "Кстово",
        "latitude": 56.15167,
        "longitude": 44.19556,
        "name": "Кстово"
    },
    {
        "key": "Кубинка",
        "latitude": 55.57639,
        "longitude": 36.69472,
        "name": "Кубинка"
    },
    {
        "key": "Кувандык",
        "latitude": 51.48333,
        "longitude": 57.35,
        "name": "Кувандык"
    },
    {
        "key": "Кувшиново",
        "latitude": 57.03333,
        "longitude": 34.16667,
        "name": "Кувшиново"
    },
    {
        "key": "Кудрово",
        "latitude": 59.908489,
        "longitude": 30.513569,
        "name": "Кудрово"
    },
    {
        "key": "Кудымкар",
        "latitude": 59.01667,
        "longitude": 54.66667,
        "name": "Кудымкар"
    },
    {
        "key": "Кузнецк",
        "latitude": 53.11667,
        "longitude": 46.6,
        "name": "Кузнецк"
    },
    {
        "key": "Куйбышев",
        "latitude": 55.45028,
        "longitude": 78.3075,
        "name": "Куйбышев"
    },
    {
        "key": "Кукмор",
        "latitude": 56.1825,
        "longitude": 50.90639,
        "name": "Кукмор"
    },
    {
        "key": "Кулебаки",
        "latitude": 55.41667,
        "longitude": 42.51667,
        "name": "Кулебаки"
    },
    {
        "key": "Кумертау",
        "latitude": 52.76667,
        "longitude": 55.78333,
        "name": "Кумертау"
    },
    {
        "key": "Кунгур",
        "latitude": 57.43333,
        "longitude": 56.93333,
        "name": "Кунгур"
    },
    {
        "key": "Купино",
        "latitude": 54.36667,
        "longitude": 77.3,
        "name": "Купино"
    },
    {
        "key": "Курган",
        "latitude": 55.44083,
        "longitude": 65.34111,
        "name": "Курган"
    },
    {
        "key": "Курганинск",
        "latitude": 44.88333,
        "longitude": 40.6,
        "name": "Курганинск"
    },
    {
        "key": "Курильск",
        "latitude": 45.25,
        "longitude": 147.883333,
        "name": "Курильск"
    },
    {
        "key": "Курлово",
        "latitude": 55.45,
        "longitude": 40.61667,
        "name": "Курлово"
    },
    {
        "key": "Куровское",
        "latitude": 55.58333,
        "longitude": 38.91667,
        "name": "Куровское"
    },
    {
        "key": "Курск",
        "latitude": 51.71667,
        "longitude": 36.18333,
        "name": "Курск"
    },
    {
        "key": "Куртамыш",
        "latitude": 54.9,
        "longitude": 64.43333,
        "name": "Куртамыш"
    },
    {
        "key": "Курчалой",
        "latitude": 43.20444,
        "longitude": 46.087812,
        "name": "Курчалой"
    },
    {
        "key": "Курчатов",
        "latitude": 51.66667,
        "longitude": 35.65,
        "name": "Курчатов"
    },
    {
        "key": "Куса",
        "latitude": 55.33333,
        "longitude": 59.43333,
        "name": "Куса"
    },
    {
        "key": "Кушва",
        "latitude": 58.28333,
        "longitude": 59.73333,
        "name": "Кушва"
    },
    {
        "key": "Кызыл",
        "latitude": 51.7,
        "longitude": 94.36667,
        "name": "Кызыл"
    },
    {
        "key": "Кыштым",
        "latitude": 55.7,
        "longitude": 60.55,
        "name": "Кыштым"
    },
    {
        "key": "Кяхта",
        "latitude": 50.35,
        "longitude": 106.45,
        "name": "Кяхта"
    },
    {
        "key": "Лабинск",
        "latitude": 44.633338,
        "longitude": 40.733311,
        "name": "Лабинск"
    },
    {
        "key": "Лабытнанги",
        "latitude": 66.65806,
        "longitude": 66.38389,
        "name": "Лабытнанги"
    },
    {
        "key": "Лагань",
        "latitude": 45.3925,
        "longitude": 47.355,
        "name": "Лагань"
    },
    {
        "key": "Ладушкин",
        "latitude": 54.56667,
        "longitude": 20.16667,
        "name": "Ладушкин"
    },
    {
        "key": "Лаишево",
        "latitude": 55.4,
        "longitude": 49.55,
        "name": "Лаишево"
    },
    {
        "key": "Лакинск",
        "latitude": 56.01694,
        "longitude": 39.94944,
        "name": "Лакинск"
    },
    {
        "key": "Лангепас",
        "latitude": 61.25,
        "longitude": 75.16667,
        "name": "Лангепас"
    },
    {
        "key": "Лахденпохья",
        "latitude": 61.51667,
        "longitude": 30.2,
        "name": "Лахденпохья"
    },
    {
        "key": "Лебедянь",
        "latitude": 53.0115528,
        "longitude": 39.1281167,
        "name": "Лебедянь"
    },
    {
        "key": "Лениногорск",
        "latitude": 54.5988694,
        "longitude": 52.4422722,
        "name": "Лениногорск"
    },
    {
        "key": "Ленинск-Кузнецкий",
        "latitude": 54.65,
        "longitude": 86.16667,
        "name": "Ленинск-Кузнецкий"
    },
    {
        "key": "Ленинск",
        "latitude": 48.7,
        "longitude": 45.2,
        "name": "Ленинск"
    },
    {
        "key": "Ленск",
        "latitude": 60.71667,
        "longitude": 114.9,
        "name": "Ленск"
    },
    {
        "key": "Лермонтов",
        "latitude": 44.10528,
        "longitude": 42.97167,
        "name": "Лермонтов"
    },
    {
        "key": "Лесной",
        "latitude": 58.63333,
        "longitude": 59.78333,
        "name": "Лесной"
    },
    {
        "key": "Лесозаводск",
        "latitude": 45.46667,
        "longitude": 133.4,
        "name": "Лесозаводск"
    },
    {
        "key": "Лесосибирск",
        "latitude": 58.23333,
        "longitude": 92.48333,
        "name": "Лесосибирск"
    },
    {
        "key": "Ливны",
        "latitude": 52.425306,
        "longitude": 37.608306,
        "name": "Ливны"
    },
    {
        "key": "Ликино-Дулёво",
        "latitude": 55.71528,
        "longitude": 38.95778,
        "name": "Ликино-Дулёво"
    },
    {
        "key": "Липецк",
        "latitude": 52.61667,
        "longitude": 39.6,
        "name": "Липецк"
    },
    {
        "key": "Липки",
        "latitude": 53.95,
        "longitude": 37.7,
        "name": "Липки"
    },
    {
        "key": "Лиски",
        "latitude": 50.98222,
        "longitude": 39.49944,
        "name": "Лиски"
    },
    {
        "key": "Лихославль",
        "latitude": 57.11667,
        "longitude": 35.46667,
        "name": "Лихославль"
    },
    {
        "key": "Лобня",
        "latitude": 56.01194,
        "longitude": 37.47444,
        "name": "Лобня"
    },
    {
        "key": "Лодейное Поле",
        "latitude": 60.734305,
        "longitude": 33.543183,
        "name": "Лодейное Поле"
    },
    {
        "key": "Ломоносов",
        "latitude": 59.91074,
        "longitude": 29.776466,
        "name": "Ломоносов"
    },
    {
        "key": "Лосино-Петровский",
        "latitude": 55.86667,
        "longitude": 38.2,
        "name": "Лосино-Петровский"
    },
    {
        "key": "Луга",
        "latitude": 58.733333333333,
        "longitude": 29.85,
        "name": "Луга"
    },
    {
        "key": "Луза",
        "latitude": 60.61667,
        "longitude": 47.28333,
        "name": "Луза"
    },
    {
        "key": "Лукоянов",
        "latitude": 55.03833,
        "longitude": 44.49778,
        "name": "Лукоянов"
    },
    {
        "key": "Луховицы",
        "latitude": 54.96667,
        "longitude": 39.025,
        "name": "Луховицы"
    },
    {
        "key": "Лысково",
        "latitude": 56.01278,
        "longitude": 45.02528,
        "name": "Лысково"
    },
    {
        "key": "Лысьва",
        "latitude": 58.1003806,
        "longitude": 57.8043278,
        "name": "Лысьва"
    },
    {
        "key": "Лыткарино",
        "latitude": 55.58361,
        "longitude": 37.90556,
        "name": "Лыткарино"
    },
    {
        "key": "Льгов",
        "latitude": 51.66667,
        "longitude": 35.26667,
        "name": "Льгов"
    },
    {
        "key": "Любань",
        "latitude": 59.349301,
        "longitude": 31.24858,
        "name": "Любань"
    },
    {
        "key": "Люберцы",
        "latitude": 55.68139,
        "longitude": 37.89389,
        "name": "Люберцы"
    },
    {
        "key": "Любим",
        "latitude": 58.35,
        "longitude": 40.7,
        "name": "Любим"
    },
    {
        "key": "Людиново",
        "latitude": 53.86667,
        "longitude": 34.46667,
        "name": "Людиново"
    },
    {
        "key": "Лянтор",
        "latitude": 61.61667,
        "longitude": 72.16667,
        "name": "Лянтор"
    },
    {
        "key": "Магадан",
        "latitude": 59.56667,
        "longitude": 150.8,
        "name": "Магадан"
    },
    {
        "key": "Магас",
        "latitude": 43.16667,
        "longitude": 44.81667,
        "name": "Магас"
    },
    {
        "key": "Магнитогорск",
        "latitude": 53.38333,
        "longitude": 59.03333,
        "name": "Магнитогорск"
    },
    {
        "key": "Майкоп",
        "latitude": 44.611,
        "longitude": 40.111,
        "name": "Майкоп"
    },
    {
        "key": "Майский",
        "latitude": 43.630508,
        "longitude": 44.067733,
        "name": "Майский"
    },
    {
        "key": "Макаров",
        "latitude": 48.61667,
        "longitude": 142.78333,
        "name": "Макаров"
    },
    {
        "key": "Макарьев",
        "latitude": 57.88333,
        "longitude": 43.8,
        "name": "Макарьев"
    },
    {
        "key": "Макушино",
        "latitude": 55.2,
        "longitude": 67.25,
        "name": "Макушино"
    },
    {
        "key": "Малая Вишера",
        "latitude": 58.85,
        "longitude": 32.21667,
        "name": "Малая Вишера"
    },
    {
        "key": "Малгобек",
        "latitude": 43.508882,
        "longitude": 44.585563,
        "name": "Малгобек"
    },
    {
        "key": "Малмыж",
        "latitude": 56.52278,
        "longitude": 50.68083,
        "name": "Малмыж"
    },
    {
        "key": "Малоархангельск",
        "latitude": 52.4,
        "longitude": 36.5,
        "name": "Малоархангельск"
    },
    {
        "key": "Малоярославец",
        "latitude": 55.0,
        "longitude": 36.46667,
        "name": "Малоярославец"
    },
    {
        "key": "Мамадыш",
        "latitude": 55.7,
        "longitude": 51.4,
        "name": "Мамадыш"
    },
    {
        "key": "Мамоново",
        "latitude": 54.46667,
        "longitude": 19.93333,
        "name": "Мамоново"
    },
    {
        "key": "Мантурово",
        "latitude": 58.33333,
        "longitude": 44.76667,
        "name": "Мантурово"
    },
    {
        "key": "Мариинск",
        "latitude": 56.21667,
        "longitude": 87.75,
        "name": "Мариинск"
    },
    {
        "key": "Мариинский Посад",
        "latitude": 56.11667,
        "longitude": 47.71667,
        "name": "Мариинский Посад"
    },
    {
        "key": "Маркс",
        "latitude": 51.7,
        "longitude": 46.75,
        "name": "Маркс"
    },
    {
        "key": "Махачкала",
        "latitude": 42.98333,
        "longitude": 47.5,
        "name": "Махачкала"
    },
    {
        "key": "Мглин",
        "latitude": 53.06111,
        "longitude": 32.84833,
        "name": "Мглин"
    },
    {
        "key": "Мегион",
        "latitude": 61.033055555556,
        "longitude": 76.109722222222,
        "name": "Мегион"
    },
    {
        "key": "Медвежьегорск",
        "latitude": 62.91667,
        "longitude": 34.45,
        "name": "Медвежьегорск"
    },
    {
        "key": "Медногорск",
        "latitude": 51.422085,
        "longitude": 57.595296,
        "name": "Медногорск"
    },
    {
        "key": "Медынь",
        "latitude": 54.96667,
        "longitude": 35.86667,
        "name": "Медынь"
    },
    {
        "key": "Межгорье",
        "latitude": 54.24167,
        "longitude": 57.96778,
        "name": "Межгорье"
    },
    {
        "key": "Междуреченск",
        "latitude": 53.68333,
        "longitude": 88.05,
        "name": "Междуреченск"
    },
    {
        "key": "Мезень",
        "latitude": 65.85,
        "longitude": 44.23333,
        "name": "Мезень"
    },
    {
        "key": "Меленки",
        "latitude": 55.33333,
        "longitude": 41.63333,
        "name": "Меленки"
    },
    {
        "key": "Мелеуз",
        "latitude": 52.95,
        "longitude": 55.93333,
        "name": "Мелеуз"
    },
    {
        "key": "Менделеевск",
        "latitude": 55.9,
        "longitude": 52.316666666667,
        "name": "Менделеевск"
    },
    {
        "key": "Мензелинск",
        "latitude": 55.71667,
        "longitude": 53.08333,
        "name": "Мензелинск"
    },
    {
        "key": "Мещовск",
        "latitude": 54.31667,
        "longitude": 35.28333,
        "name": "Мещовск"
    },
    {
        "key": "Миасс",
        "latitude": 55.05,
        "longitude": 60.1,
        "name": "Миасс"
    },
    {
        "key": "Микунь",
        "latitude": 62.35,
        "longitude": 50.06667,
        "name": "Микунь"
    },
    {
        "key": "Миллерово",
        "latitude": 48.91667,
        "longitude": 40.4,
        "name": "Миллерово"
    },
    {
        "key": "Минеральные Воды",
        "latitude": 44.20083,
        "longitude": 43.1125,
        "name": "Минеральные Воды"
    },
    {
        "key": "Минусинск",
        "latitude": 53.7,
        "longitude": 91.68333,
        "name": "Минусинск"
    },
    {
        "key": "Миньяр",
        "latitude": 55.06667,
        "longitude": 57.55,
        "name": "Миньяр"
    },
    {
        "key": "Мирный",
        "latitude": 62.76028,
        "longitude": 40.33528,
        "name": "Мирный"
    },
    {
        "key": "Мирный",
        "latitude": 62.53333,
        "longitude": 113.95,
        "name": "Мирный"
    },
    {
        "key": "Михайлов",
        "latitude": 54.23333,
        "longitude": 39.03333,
        "name": "Михайлов"
    },
    {
        "key": "Михайловка",
        "latitude": 50.06667,
        "longitude": 43.23333,
        "name": "Михайловка"
    },
    {
        "key": "Михайловск",
        "latitude": 56.43333,
        "longitude": 59.11667,
        "name": "Михайловск"
    },
    {
        "key": "Михайловск",
        "latitude": 45.130012,
        "longitude": 42.027487,
        "name": "Михайловск"
    },
    {
        "key": "Мичуринск",
        "latitude": 52.89222,
        "longitude": 40.49278,
        "name": "Мичуринск"
    },
    {
        "key": "Могоча",
        "latitude": 53.73333,
        "longitude": 119.76667,
        "name": "Могоча"
    },
    {
        "key": "Можайск",
        "latitude": 55.5,
        "longitude": 36.03333,
        "name": "Можайск"
    },
    {
        "key": "Можга",
        "latitude": 56.45,
        "longitude": 52.21667,
        "name": "Можга"
    },
    {
        "key": "Моздок",
        "latitude": 43.736575,
        "longitude": 44.652834,
        "name": "Моздок"
    },
    {
        "key": "Мончегорск",
        "latitude": 67.93944,
        "longitude": 32.91556,
        "name": "Мончегорск"
    },
    {
        "key": "Морозовск",
        "latitude": 48.35,
        "longitude": 41.833333333333,
        "name": "Морозовск"
    },
    {
        "key": "Моршанск",
        "latitude": 53.45,
        "longitude": 41.8,
        "name": "Моршанск"
    },
    {
        "key": "Мосальск",
        "latitude": 54.48333,
        "longitude": 34.98333,
        "name": "Мосальск"
    },
    {
        "key": "Москва",
        "latitude": 55.755833333333,
        "longitude": 37.617777777778,
        "name": "Москва"
    },
    {
        "key": "Московский",
        "latitude": 55.6,
        "longitude": 37.35,
        "name": "Московский"
    },
    {
        "key": "Муравленко",
        "latitude": 63.79444,
        "longitude": 74.49722,
        "name": "Муравленко"
    },
    {
        "key": "Мураши",
        "latitude": 59.38333,
        "longitude": 48.96667,
        "name": "Мураши"
    },
    {
        "key": "Мурино",
        "latitude": 60.051284,
        "longitude": 30.438578,
        "name": "Мурино"
    },
    {
        "key": "Мурманск",
        "latitude": 68.96667,
        "longitude": 33.08333,
        "name": "Мурманск"
    },
    {
        "key": "Муром",
        "latitude": 55.5725,
        "longitude": 42.05139,
        "name": "Муром"
    },
    {
        "key": "Мценск",
        "latitude": 53.27833,
        "longitude": 36.575,
        "name": "Мценск"
    },
    {
        "key": "Мыски",
        "latitude": 53.7,
        "longitude": 87.81667,
        "name": "Мыски"
    },
    {
        "key": "Мытищи",
        "latitude": 55.91667,
        "longitude": 37.73333,
        "name": "Мытищи"
    },
    {
        "key": "Мышкин",
        "latitude": 57.78333,
        "longitude": 38.45,
        "name": "Мышкин"
    },
    {
        "key": "Набережные Челны",
        "latitude": 55.7,
        "longitude": 52.33333,
        "name": "Набережные Челны"
    },
    {
        "key": "Навашино",
        "latitude": 55.53333,
        "longitude": 42.2,
        "name": "Навашино"
    },
    {
        "key": "Наволоки",
        "latitude": 57.46667,
        "longitude": 41.96667,
        "name": "Наволоки"
    },
    {
        "key": "Надым",
        "latitude": 65.53333,
        "longitude": 72.51667,
        "name": "Надым"
    },
    {
        "key": "Назарово",
        "latitude": 56.00639,
        "longitude": 90.39139,
        "name": "Назарово"
    },
    {
        "key": "Назрань",
        "latitude": 43.21667,
        "longitude": 44.76667,
        "name": "Назрань"
    },
    {
        "key": "Называевск",
        "latitude": 55.56667,
        "longitude": 71.35,
        "name": "Называевск"
    },
    {
        "key": "Нальчик",
        "latitude": 43.485259,
        "longitude": 43.607072,
        "name": "Нальчик"
    },
    {
        "key": "Нариманов",
        "latitude": 46.68333,
        "longitude": 47.85,
        "name": "Нариманов"
    },
    {
        "key": "Наро-Фоминск",
        "latitude": 55.38333,
        "longitude": 36.73333,
        "name": "Наро-Фоминск"
    },
    {
        "key": "Нарткала",
        "latitude": 43.556734,
        "longitude": 43.862222,
        "name": "Нарткала"
    },
    {
        "key": "Нарьян-Мар",
        "latitude": 67.63778,
        "longitude": 53.00667,
        "name": "Нарьян-Мар"
    },
    {
        "key": "Находка",
        "latitude": 42.81667,
        "longitude": 132.88333,
        "name": "Находка"
    },
    {
        "key": "Невель",
        "latitude": 56.01667,
        "longitude": 29.93333,
        "name": "Невель"
    },
    {
        "key": "Невельск",
        "latitude": 46.65,
        "longitude": 141.86667,
        "name": "Невельск"
    },
    {
        "key": "Невинномысск",
        "latitude": 44.63333,
        "longitude": 41.93333,
        "name": "Невинномысск"
    },
    {
        "key": "Невьянск",
        "latitude": 57.48333,
        "longitude": 60.2,
        "name": "Невьянск"
    },
    {
        "key": "Нелидово",
        "latitude": 56.21667,
        "longitude": 32.78333,
        "name": "Нелидово"
    },
    {
        "key": "Неман",
        "latitude": 55.03333,
        "longitude": 22.03333,
        "name": "Неман"
    },
    {
        "key": "Нерехта",
        "latitude": 57.45,
        "longitude": 40.58333,
        "name": "Нерехта"
    },
    {
        "key": "Нерчинск",
        "latitude": 51.98333,
        "longitude": 116.58333,
        "name": "Нерчинск"
    },
    {
        "key": "Нерюнгри",
        "latitude": 56.65833,
        "longitude": 124.725,
        "name": "Нерюнгри"
    },
    {
        "key": "Нестеров",
        "latitude": 54.63333,
        "longitude": 22.56667,
        "name": "Нестеров"
    },
    {
        "key": "Нефтегорск",
        "latitude": 52.8,
        "longitude": 51.16667,
        "name": "Нефтегорск"
    },
    {
        "key": "Нефтекамск",
        "latitude": 56.08889,
        "longitude": 54.24639,
        "name": "Нефтекамск"
    },
    {
        "key": "Нефтекумск",
        "latitude": 44.75056,
        "longitude": 44.97972,
        "name": "Нефтекумск"
    },
    {
        "key": "Нефтеюганск",
        "latitude": 61.1,
        "longitude": 72.6,
        "name": "Нефтеюганск"
    },
    {
        "key": "Нея",
        "latitude": 58.29444,
        "longitude": 43.87806,
        "name": "Нея"
    },
    {
        "key": "Нижневартовск",
        "latitude": 60.93389,
        "longitude": 76.58111,
        "name": "Нижневартовск"
    },
    {
        "key": "Нижнекамск",
        "latitude": 55.63333,
        "longitude": 51.81667,
        "name": "Нижнекамск"
    },
    {
        "key": "Нижнеудинск",
        "latitude": 54.9,
        "longitude": 99.01667,
        "name": "Нижнеудинск"
    },
    {
        "key": "Нижние Серги",
        "latitude": 56.66667,
        "longitude": 59.3,
        "name": "Нижние Серги"
    },
    {
        "key": "Нижний Ломов",
        "latitude": 53.53333,
        "longitude": 43.68333,
        "name": "Нижний Ломов"
    },
    {
        "key": "Нижний Новгород",
        "latitude": 56.32694,
        "longitude": 44.0075,
        "name": "Нижний Новгород"
    },
    {
        "key": "Нижний Тагил",
        "latitude": 57.91667,
        "longitude": 59.96667,
        "name": "Нижний Тагил"
    },
    {
        "key": "Нижняя Салда",
        "latitude": 58.08333,
        "longitude": 60.71667,
        "name": "Нижняя Салда"
    },
    {
        "key": "Нижняя Тура",
        "latitude": 58.62083,
        "longitude": 59.84778,
        "name": "Нижняя Тура"
    },
    {
        "key": "Николаевск-на-Амуре",
        "latitude": 53.15,
        "longitude": 140.73333,
        "name": "Николаевск-на-Амуре"
    },
    {
        "key": "Николаевск",
        "latitude": 50.02722,
        "longitude": 45.46306,
        "name": "Николаевск"
    },
    {
        "key": "Никольск",
        "latitude": 59.53333,
        "longitude": 45.45,
        "name": "Никольск"
    },
    {
        "key": "Никольск",
        "latitude": 53.71667,
        "longitude": 46.08333,
        "name": "Никольск"
    },
    {
        "key": "Никольское",
        "latitude": 59.704642,
        "longitude": 30.788975,
        "name": "Никольское"
    },
    {
        "key": "Новая Ладога",
        "latitude": 60.106401,
        "longitude": 32.316183,
        "name": "Новая Ладога"
    },
    {
        "key": "Новая Ляля",
        "latitude": 59.05,
        "longitude": 60.6,
        "name": "Новая Ляля"
    },
    {
        "key": "Новоалександровск",
        "latitude": 45.49333,
        "longitude": 41.21694,
        "name": "Новоалександровск"
    },
    {
        "key": "Новоалтайск",
        "latitude": 53.4,
        "longitude": 83.93333,
        "name": "Новоалтайск"
    },
    {
        "key": "Новоаннинский",
        "latitude": 50.51667,
        "longitude": 42.66667,
        "name": "Новоаннинский"
    },
    {
        "key": "Нововоронеж",
        "latitude": 51.31667,
        "longitude": 39.21667,
        "name": "Нововоронеж"
    },
    {
        "key": "Новодвинск",
        "latitude": 64.41667,
        "longitude": 40.81667,
        "name": "Новодвинск"
    },
    {
        "key": "Новозыбков",
        "latitude": 52.53333,
        "longitude": 31.93333,
        "name": "Новозыбков"
    },
    {
        "key": "Новокубанск",
        "latitude": 45.1,
        "longitude": 41.05,
        "name": "Новокубанск"
    },
    {
        "key": "Новокузнецк",
        "latitude": 53.73333,
        "longitude": 87.08333,
        "name": "Новокузнецк"
    },
    {
        "key": "Новокуйбышевск",
        "latitude": 53.1,
        "longitude": 49.91667,
        "name": "Новокуйбышевск"
    },
    {
        "key": "Новомичуринск",
        "latitude": 54.03333,
        "longitude": 39.75,
        "name": "Новомичуринск"
    },
    {
        "key": "Новомосковск",
        "latitude": 54.03333,
        "longitude": 38.26667,
        "name": "Новомосковск"
    },
    {
        "key": "Новопавловск",
        "latitude": 43.96361,
        "longitude": 43.63944,
        "name": "Новопавловск"
    },
    {
        "key": "Новоржев",
        "latitude": 57.03333,
        "longitude": 29.33333,
        "name": "Новоржев"
    },
    {
        "key": "Новороссийск",
        "latitude": 44.71667,
        "longitude": 37.76667,
        "name": "Новороссийск"
    },
    {
        "key": "Новосибирск",
        "latitude": 55.01667,
        "longitude": 82.91667,
        "name": "Новосибирск"
    },
    {
        "key": "Новосиль",
        "latitude": 52.96667,
        "longitude": 37.05,
        "name": "Новосиль"
    },
    {
        "key": "Новосокольники",
        "latitude": 56.33333,
        "longitude": 30.15,
        "name": "Новосокольники"
    },
    {
        "key": "Новотроицк",
        "latitude": 51.20667,
        "longitude": 58.32806,
        "name": "Новотроицк"
    },
    {
        "key": "Новоузенск",
        "latitude": 50.45,
        "longitude": 48.15,
        "name": "Новоузенск"
    },
    {
        "key": "Новоульяновск",
        "latitude": 54.15,
        "longitude": 48.38333,
        "name": "Новоульяновск"
    },
    {
        "key": "Новоуральск",
        "latitude": 57.25,
        "longitude": 60.08333,
        "name": "Новоуральск"
    },
    {
        "key": "Новохопёрск",
        "latitude": 51.1,
        "longitude": 41.61667,
        "name": "Новохопёрск"
    },
    {
        "key": "Новочебоксарск",
        "latitude": 56.12194,
        "longitude": 47.4925,
        "name": "Новочебоксарск"
    },
    {
        "key": "Новочеркасск",
        "latitude": 47.43583,
        "longitude": 40.09861,
        "name": "Новочеркасск"
    },
    {
        "key": "Новошахтинск",
        "latitude": 47.76667,
        "longitude": 39.91667,
        "name": "Новошахтинск"
    },
    {
        "key": "Новый Оскол",
        "latitude": 50.76667,
        "longitude": 37.86667,
        "name": "Новый Оскол"
    },
    {
        "key": "Новый Уренгой",
        "latitude": 66.08472,
        "longitude": 76.67889,
        "name": "Новый Уренгой"
    },
    {
        "key": "Ногинск",
        "latitude": 55.85,
        "longitude": 38.43333,
        "name": "Ногинск"
    },
    {
        "key": "Нолинск",
        "latitude": 57.55722,
        "longitude": 49.93417,
        "name": "Нолинск"
    },
    {
        "key": "Норильск",
        "latitude": 69.33333,
        "longitude": 88.21667,
        "name": "Норильск"
    },
    {
        "key": "Ноябрьск",
        "latitude": 63.20167,
        "longitude": 75.45167,
        "name": "Ноябрьск"
    },
    {
        "key": "Нурлат",
        "latitude": 54.43333,
        "longitude": 50.8,
        "name": "Нурлат"
    },
    {
        "key": "Нытва",
        "latitude": 57.93333,
        "longitude": 55.33333,
        "name": "Нытва"
    },
    {
        "key": "Нюрба",
        "latitude": 63.28333,
        "longitude": 118.33333,
        "name": "Нюрба"
    },
    {
        "key": "Нягань",
        "latitude": 62.13333,
        "longitude": 65.38333,
        "name": "Нягань"
    },
    {
        "key": "Нязепетровск",
        "latitude": 56.05,
        "longitude": 59.6,
        "name": "Нязепетровск"
    },
    {
        "key": "Няндома",
        "latitude": 61.666666666667,
        "longitude": 40.2,
        "name": "Няндома"
    },
    {
        "key": "Облучье",
        "latitude": 49.0,
        "longitude": 131.05,
        "name": "Облучье"
    },
    {
        "key": "Обнинск",
        "latitude": 55.1,
        "longitude": 36.61667,
        "name": "Обнинск"
    },
    {
        "key": "Обоянь",
        "latitude": 51.21111,
        "longitude": 36.27639,
        "name": "Обоянь"
    },
    {
        "key": "Обь",
        "latitude": 54.99167,
        "longitude": 82.7125,
        "name": "Обь"
    },
    {
        "key": "Одинцово",
        "latitude": 55.67333,
        "longitude": 37.27333,
        "name": "Одинцово"
    },
    {
        "key": "Озёрск",
        "latitude": 54.41667,
        "longitude": 22.01667,
        "name": "Озёрск"
    },
    {
        "key": "Озёрск",
        "latitude": 55.75,
        "longitude": 60.71667,
        "name": "Озёрск"
    },
    {
        "key": "Озёры",
        "latitude": 54.857875,
        "longitude": 38.5438194,
        "name": "Озёры"
    },
    {
        "key": "Октябрьск",
        "latitude": 53.16667,
        "longitude": 48.66667,
        "name": "Октябрьск"
    },
    {
        "key": "Октябрьский",
        "latitude": 54.48333,
        "longitude": 53.48333,
        "name": "Октябрьский"
    },
    {
        "key": "Окуловка",
        "latitude": 58.38333,
        "longitude": 33.3,
        "name": "Окуловка"
    },
    {
        "key": "Оленегорск",
        "latitude": 68.15,
        "longitude": 33.28333,
        "name": "Оленегорск"
    },
    {
        "key": "Олонец",
        "latitude": 60.98333,
        "longitude": 32.96667,
        "name": "Олонец"
    },
    {
        "key": "Олёкминск",
        "latitude": 60.38333,
        "longitude": 120.43333,
        "name": "Олёкминск"
    },
    {
        "key": "Омск",
        "latitude": 54.96667,
        "longitude": 73.38333,
        "name": "Омск"
    },
    {
        "key": "Омутнинск",
        "latitude": 58.66667,
        "longitude": 52.18333,
        "name": "Омутнинск"
    },
    {
        "key": "Онега",
        "latitude": 63.91667,
        "longitude": 38.08333,
        "name": "Онега"
    },
    {
        "key": "Опочка",
        "latitude": 56.71667,
        "longitude": 28.65,
        "name": "Опочка"
    },
    {
        "key": "Оренбург",
        "latitude": 51.76667,
        "longitude": 55.1,
        "name": "Оренбург"
    },
    {
        "key": "Орехово-Зуево",
        "latitude": 55.8,
        "longitude": 38.96667,
        "name": "Орехово-Зуево"
    },
    {
        "key": "Орлов",
        "latitude": 58.53889,
        "longitude": 48.89861,
        "name": "Орлов"
    },
    {
        "key": "Орск",
        "latitude": 51.2,
        "longitude": 58.61667,
        "name": "Орск"
    },
    {
        "key": "Орёл",
        "latitude": 52.96667,
        "longitude": 36.08333,
        "name": "Орёл"
    },
    {
        "key": "Оса",
        "latitude": 57.28333,
        "longitude": 55.45,
        "name": "Оса"
    },
    {
        "key": "Осинники",
        "latitude": 53.61667,
        "longitude": 87.33333,
        "name": "Осинники"
    },
    {
        "key": "Осташков",
        "latitude": 57.15,
        "longitude": 33.1,
        "name": "Осташков"
    },
    {
        "key": "Остров",
        "latitude": 57.33333,
        "longitude": 28.35,
        "name": "Остров"
    },
    {
        "key": "Островной",
        "latitude": 68.05306,
        "longitude": 39.51306,
        "name": "Островной"
    },
    {
        "key": "Острогожск",
        "latitude": 50.86667,
        "longitude": 39.06667,
        "name": "Острогожск"
    },
    {
        "key": "Отрадное",
        "latitude": 59.77409,
        "longitude": 30.794553,
        "name": "Отрадное"
    },
    {
        "key": "Отрадный",
        "latitude": 53.36667,
        "longitude": 51.35,
        "name": "Отрадный"
    },
    {
        "key": "Оха",
        "latitude": 53.58333,
        "longitude": 142.95,
        "name": "Оха"
    },
    {
        "key": "Оханск",
        "latitude": 57.71667,
        "longitude": 55.38333,
        "name": "Оханск"
    },
    {
        "key": "Очёр",
        "latitude": 57.88333,
        "longitude": 54.71667,
        "name": "Очёр"
    },
    {
        "key": "Павлово",
        "latitude": 55.96194,
        "longitude": 43.09,
        "name": "Павлово"
    },
    {
        "key": "Павловск",
        "latitude": 50.45,
        "longitude": 40.06667,
        "name": "Павловск"
    },
    {
        "key": "Павловск",
        "latitude": 59.68333,
        "longitude": 30.43333,
        "name": "Павловск"
    },
    {
        "key": "Павловский Посад",
        "latitude": 55.78333,
        "longitude": 38.65,
        "name": "Павловский Посад"
    },
    {
        "key": "Палласовка",
        "latitude": 50.05,
        "longitude": 46.88333,
        "name": "Палласовка"
    },
    {
        "key": "Партизанск",
        "latitude": 43.13333,
        "longitude": 133.13333,
        "name": "Партизанск"
    },
    {
        "key": "Певек",
        "latitude": 69.7,
        "longitude": 170.31667,
        "name": "Певек"
    },
    {
        "key": "Пенза",
        "latitude": 53.2,
        "longitude": 45.0,
        "name": "Пенза"
    },
    {
        "key": "Первомайск",
        "latitude": 54.86667,
        "longitude": 43.8,
        "name": "Первомайск"
    },
    {
        "key": "Первоуральск",
        "latitude": 56.91667,
        "longitude": 59.95,
        "name": "Первоуральск"
    },
    {
        "key": "Перевоз",
        "latitude": 55.6,
        "longitude": 44.55,
        "name": "Перевоз"
    },
    {
        "key": "Пересвет",
        "latitude": 56.41667,
        "longitude": 38.175,
        "name": "Пересвет"
    },
    {
        "key": "Переславль-Залесский",
        "latitude": 56.7381333,
        "longitude": 38.8561528,
        "name": "Переславль-Залесский"
    },
    {
        "key": "Пермь",
        "latitude": 58.01389,
        "longitude": 56.24889,
        "name": "Пермь"
    },
    {
        "key": "Пестово",
        "latitude": 58.6,
        "longitude": 35.81667,
        "name": "Пестово"
    },
    {
        "key": "Петергоф",
        "latitude": 59.88333,
        "longitude": 29.9,
        "name": "Петергоф"
    },
    {
        "key": "Петров Вал",
        "latitude": 50.13333,
        "longitude": 45.21667,
        "name": "Петров Вал"
    },
    {
        "key": "Петровск-Забайкальский",
        "latitude": 51.28333,
        "longitude": 108.83333,
        "name": "Петровск-Забайкальский"
    },
    {
        "key": "Петровск",
        "latitude": 52.31667,
        "longitude": 45.38333,
        "name": "Петровск"
    },
    {
        "key": "Петрозаводск",
        "latitude": 61.79611,
        "longitude": 34.34917,
        "name": "Петрозаводск"
    },
    {
        "key": "Петропавловск-Камчатский",
        "latitude": 53.01667,
        "longitude": 158.65,
        "name": "Петропавловск-Камчатский"
    },
    {
        "key": "Петухово",
        "latitude": 55.06667,
        "longitude": 67.88333,
        "name": "Петухово"
    },
    {
        "key": "Петушки",
        "latitude": 55.93333,
        "longitude": 39.46667,
        "name": "Петушки"
    },
    {
        "key": "Печора",
        "latitude": 65.11667,
        "longitude": 57.11667,
        "name": "Печора"
    },
    {
        "key": "Печоры",
        "latitude": 57.81667,
        "longitude": 27.6,
        "name": "Печоры"
    },
    {
        "key": "Пикалёво",
        "latitude": 59.512684,
        "longitude": 34.177483,
        "name": "Пикалёво"
    },
    {
        "key": "Пионерский",
        "latitude": 54.95,
        "longitude": 20.21667,
        "name": "Пионерский"
    },
    {
        "key": "Питкяранта",
        "latitude": 61.56667,
        "longitude": 31.48333,
        "name": "Питкяранта"
    },
    {
        "key": "Плавск",
        "latitude": 53.7,
        "longitude": 37.3,
        "name": "Плавск"
    },
    {
        "key": "Пласт",
        "latitude": 54.36667,
        "longitude": 60.81667,
        "name": "Пласт"
    },
    {
        "key": "Плёс",
        "latitude": 57.45,
        "longitude": 41.5,
        "name": "Плёс"
    },
    {
        "key": "Поворино",
        "latitude": 51.2,
        "longitude": 42.25,
        "name": "Поворино"
    },
    {
        "key": "Подольск",
        "latitude": 55.42972,
        "longitude": 37.54444,
        "name": "Подольск"
    },
    {
        "key": "Подпорожье",
        "latitude": 60.912097,
        "longitude": 34.167952,
        "name": "Подпорожье"
    },
    {
        "key": "Покачи",
        "latitude": 61.75,
        "longitude": 75.58333,
        "name": "Покачи"
    },
    {
        "key": "Покров",
        "latitude": 55.91778,
        "longitude": 39.175,
        "name": "Покров"
    },
    {
        "key": "Покровск",
        "latitude": 61.48333,
        "longitude": 129.15,
        "name": "Покровск"
    },
    {
        "key": "Полевской",
        "latitude": 56.45,
        "longitude": 60.18333,
        "name": "Полевской"
    },
    {
        "key": "Полесск",
        "latitude": 54.86667,
        "longitude": 21.1,
        "name": "Полесск"
    },
    {
        "key": "Полысаево",
        "latitude": 54.6,
        "longitude": 86.28333,
        "name": "Полысаево"
    },
    {
        "key": "Полярные Зори",
        "latitude": 67.36583,
        "longitude": 32.49806,
        "name": "Полярные Зори"
    },
    {
        "key": "Полярный",
        "latitude": 69.19833,
        "longitude": 33.45611,
        "name": "Полярный"
    },
    {
        "key": "Поронайск",
        "latitude": 49.21667,
        "longitude": 143.1,
        "name": "Поронайск"
    },
    {
        "key": "Порхов",
        "latitude": 57.76667,
        "longitude": 29.55,
        "name": "Порхов"
    },